   name1,name2,street1,street2,city,state,zip,zip4,county,phone,intake_prompt,intake1,intake2,website,latitude,longitude,type_facility,last_update,mh,psy,rtcc,rtca,ores,ph,omh,cmhc,msnh,ipt,cft,gt,cbt,dbt,bmt,idd,tt,at,ect,ptm,tele,smon,smpd,smop,hi,res,phdt,op,pvt,vamc,sma,osg,lmg,tbg,ih,sf,md,mc,si,pi,mi,smha,swfs,scjj,sef,osf,clf,csbg,cmhg,vaf,cit,wi,ss,pa,ah,sp,nx,fx,co,gl,vet,adm,mf,cj,se,hv,trma,sed,smi,alz,ptsd,tbi,tay,ped,act,icm,cm,cdm,peer,coot,dec,es,fpsy,hs,imr,ipc,lad,nrt,nsc,prs,stu,sps,semp,sh,tpc,tcc,vrs,chld,yad,adlt,snr,itu,pvtp,pvtn,fqhc,vo,f17,f19,f25,f28,f30,f31,f35,f36,f37,f4,f42,f43,f47,f66,f67,f70,f81,f92,n13,n18,n23,n24,n40 
Family Life Services,Diakon Lutheran Social Ministries,435 West 4th Street,,Williamsport,PA,17701,,Lycoming,570-322-7873,,,,http://,41.240031,-77.009072,MH,2017-02-27 11:25:37,1,,,,,,1,,,1,1,1,1,1,1,1,1,,,1,,1,,,,,,1,,,,,,,,1,1,1,1,1,1,1,1,1,1,1,1,1,1,1,,,,,,,,,1,1,,,,1,,,1,,,,1,,,,,,,,,,,,,,,,,,,,,,,,,,,1,1,1,1,,,1,,,,,,,,,,,,,,,,,,,,,,,,,
Crossroads Counseling Inc,,501 East 3rd Street,,Williamsport,PA,17701,,Lycoming,800-887-2720,,570-323-7535,,http://www.crossroadscounselinginc.com,41.2447688,-76.9939623,MH,2018-09-05 11:04:42.73,1,,,,,,1,,,1,1,1,1,1,1,1,1,,,1,1,,1,,,,,1,,,,,,,,1,1,,,1,,1,1,,,,1,,,,,,,,,,,,1,,,,,,,,,,,,,,,,,,,,,1,1,,1,,,,,,1,1,,,,,,1,,1,1,1,1,,1,,,,,,,,,,,,,,,,,,,,,,,,,,
Community Services Group,,1000 Commerce Park Drive,Water Tower Square,Williamsport,PA,17701,,Lycoming,877-907-7970,,,,http://www.csgonline.org,41.244998,-76.985364,MH,2017-02-27 11:25:37,1,,,,,,,,1,1,1,1,1,1,1,1,1,,,1,1,,1,,,,1,1,,,,,,,,1,1,1,1,1,1,1,1,1,,,1,,1,,,1,,,,,,,,,,,,,,,1,,1,,1,,1,,,,,,1,,,,,1,,1,,,,1,,,,1,,,,1,1,1,1,,1,,,,,,,,,,,,,,,,,,,,,,,,,,
Divine Providence Hospital,UPMC Susquehanna BH/Inpatient Unit,1100 Grampian Boulevard,,Williamsport,PA,17701,,Lycoming,570-326-8295,,888-882-2340,,http://,41.2600877,-76.9848418,MH,2018-05-30 09:39:39.473,1,1,,,,,,,,1,1,1,1,1,1,,,1,1,1,,1,,,1,,,,,,,,,,,1,1,1,,1,1,,,,,,,,,,1,,,,1,1,,,,,,,,,1,,,,1,,,,,,,,,,,,1,,1,,,1,,1,1,,1,,,,,1,,,1,1,1,,,1,,,,,,,,,,,,,,,,,,,,,,,,,
Wilkes Barre VAMC,Wiiliamsport Outpatient Clinic,1705 Warren Avenue,Suite 304,Williamsport,PA,17701,2665,Lycoming,570-322-4791,,570-322-4971,,http://,41.2600354,-76.9820377,MH,2018-03-07 17:17:21.274,1,,,,,,,,,1,,,1,,,1,1,,,1,1,,1,,,,,1,,1,,,,,,,,,,,,,,,,,,,,1,,1,,,,,,,1,1,1,,,1,1,1,1,,1,1,1,1,,1,,,,,,,,,,,,,,,,,,1,,,,,,,1,1,1,,,,,,,,,,,,,,,,,,,,,,,,,,,,
Crossroads Counseling Inc,Clinton County Office,8 North Grove Street,,Lock Haven,PA,17745,,Clinton,570-893-1886,,,,http://www.crossroadscounselinginc.com,41.13393,-77.443585,MH,2017-02-27 11:25:37,1,,,,,,1,,,1,1,1,1,1,1,1,1,,,1,1,1,,,,,1,1,,,,,,,,1,1,,1,1,,1,1,,,,1,,,,,,,,,,,,1,,,,,,,,,,,,,,,,,,,,,1,1,,1,,,,,,1,1,1,,,,,1,,1,1,1,1,,1,,,,,,,,,,,,,,,,,,,,,,,,,,
Family Life Services/Lewisburg,,1800 Market Street,,Lewisburg,PA,17837,,Union,570-524-9477,,,,http://,40.958719,-76.902692,MH,2017-02-27 11:25:37,1,,,,,,1,,,1,1,,1,,1,,1,,,1,,1,,,,,,1,,,,,,,,1,1,1,1,1,1,1,1,1,1,1,1,,,,,,1,,,,,,,1,,,,,,,1,,,,1,,,,,,,,,,,,,,,,,,,,,,,,,,,1,1,1,1,,,1,,,,,,,,,,,,,,,,,,,,,,,,,
CONCERN Professional Services,,60 North 8th Street,,Lewisburg,PA,17837,,Union,570-523-1297,,,,http://www.concern4kids.org,40.9625718,-76.8913497,MH,2018-05-14 12:09:25.264,1,,,,,,1,,,,,,1,,1,,,1,,,,,1,,,,,1,,,,,,,,,1,,,1,,,,,,,,,,,,,,,,1,,,,,,,,,,,,,,,,,,,,,,,,,,,,,,,,,,,,,,,,,,1,,,,,,,,,,,,,,,,,,,,,,,,,,,,,,,
Keystone Human Services,Mental Health,1155 North 4th Street,,Sunbury,PA,17801,1221,Northumberland,570-286-1757,,,,http://www.keystonehumanservices.org,40.877075,-76.7826445,MH,2017-02-27 11:25:37,1,,,,,,1,,,,,,,,,,,,,,,,1,,,,,1,,,,,,,,,1,1,,1,,,,,,,1,,,,,,,,,,,,,,,,,,,,,,,,,,,,,,,,,,,,,1,,,,,,,,,,1,,,,,1,1,1,,,,,,,,,,,,,,,,,,,,,,,,,,,,
Community Services Group,Acute Partial Hospitalization,330 North 2nd Street,Suite A,Sunbury,PA,17801,,Northumberland,570-286-0111 x30003,Intakes,570-286-0111,877-907-7970,http://csgonline.org,40.866381,-76.7922609,MH,2018-07-25 10:15:17.901,1,,,,,1,,,,,,1,1,1,1,,1,1,,1,1,,1,,,,1,1,,,,,,,,1,1,,1,1,,1,1,,,,1,,,,,1,,,,,,,,,,,,,,,,,1,,,,,,,,,,1,,,,,,,,,,,,1,1,,,,,,,1,1,1,,1,,,,,,,,,,,,,,,,,,,,,,,,,,
Northumberland County,BH/IDS Programs,217 North Center Street,,Sunbury,PA,17801,,Northumberland,570-495-2007,,570-495-2040,,http://,40.865382,-76.7923424,MH,2017-02-27 11:25:37,1,,,,,,,1,,1,,,,,,,,,,1,,,1,,,,,1,,,,,1,,,1,1,,,,,,,,,,,,,,1,1,,1,,1,,,,,,,,,,,,,,,,,1,,,1,1,,,1,1,1,,1,,,,1,,,1,,,1,,1,,1,1,1,1,,,,,,,,,,,,,,,,,,,,,,,,,,,,
UPMC/Sunbury Community Hospital,Behavioral Health,350 North 11th Street,,Sunbury,PA,17801,1611,Northumberland,570-286-3333,,570-286-3430,,http://www.chs.net,40.8617002,-76.7786187,MH,2018-07-25 10:14:25.46,1,1,,,,,,,,1,1,1,1,,1,1,1,1,,1,,1,,,1,,,,,,,,,,,1,1,1,1,1,1,1,,,,,,,,,1,,,1,1,1,,,1,1,1,,,,1,1,1,,1,,1,1,,,1,1,1,1,,1,1,1,1,,1,1,,1,1,1,1,1,,1,,1,,,1,1,1,,1,,,,,,,,,,,,,,,,,,,,,,,,,,
Geisinger Medical Center,Behavioral Health,100 North Academy Avenue,,Danville,PA,17822,9800,Montour,570-271-6516,,570-271-6396,,http://www.geisinger.org,40.967891,-76.605062,MH,2017-02-27 11:25:37,1,1,,,,,,,,1,,1,1,1,1,,1,,1,1,1,1,,,1,,1,1,,,,,,,,1,1,1,1,1,1,1,1,1,1,1,1,1,1,1,1,,,,1,,,,,,,,,,,,,,,,,,1,,,,,,,,,,,,,1,,,,,,,,,,,,1,1,1,1,,,,,,,,,,,,,,,,,,,,,,,,,,,,
McCloskey Counseling Center,,205 Mill Street,,Milesburg,PA,16853,,Centre,814-357-2400,,,,http://,40.942939,-77.786641,MH,2017-02-27 11:25:37,1,,,,,,1,,,1,1,1,1,1,,,1,1,,,,1,,,,,,1,,,,,,,,1,1,,,1,,,1,1,,,1,,,,1,,,,,,,,,1,,,,1,,,1,,,,1,,,,,,,,,1,,,,,,,,,,,,1,,,,,,1,1,,,,,,,,,,,,,,,,,,,,,,,,,,,,,,
Universal Comm Behavioral Hlth,Outpatient Centre,190 Match Factory Place,,Bellefonte,PA,16823,,Centre,814-353-3151,,888-520-8224,,http://www.themeadows.net,40.9083452,-77.7825542,MH,2018-03-30 14:07:47.624,1,,,,,,1,,,1,1,1,1,,1,,1,,,1,,,1,,,,,1,,,,,,,,1,1,1,1,1,1,1,1,1,1,1,1,1,1,1,1,,,,1,,,,,,,,,,,,,1,1,,,,,,,,,,,1,,,,,,,,,,,1,1,,,,,,1,1,1,1,1,1,,,,,,,,,,,,,,,,,,,,,,,,,,
CONCERN Professional Services,Wellsboro Branch Office,62 Plaza Lane,,Wellsboro,PA,16901,,Tioga,570-724-7142,Intakes,570-724-7142 x1,,http://www.concern4kids.org,41.745414,-77.281077,MH,2017-02-27 11:25:37,1,,,,,,1,,,1,1,,,,1,,1,1,,,,,1,,,,,1,,,,,,,,,1,,,1,,,,,,,,,,,,,,,,,,,,,,,,,,,,,,,,,,,,,,,,,,,,,,,,,,1,,,,,,,,1,,,,,,,,,,,,,,,,,,,,,,,,,,,,,,,
Meadows Psychiatric Center,Universal Community Behav Hlth,132 The Meadows Drive,,Centre Hall,PA,16828,,Centre,814-364-2161,,,800-641-7529,http://www.themeadows.net,40.8106495,-77.7125997,MH,2018-03-30 14:07:52.993,1,1,,,,,,,,1,1,1,1,,1,,1,1,,1,,,1,,1,,,,,,,,,,,1,1,1,1,1,1,1,1,1,1,1,1,,,,1,1,,,,,,,,,,,,,,,1,1,1,,,,,,,,1,,,,,1,,,,,,1,,,1,1,,,,1,,1,1,1,1,,1,,,,,,,,,,,,,,,,,,,,,,,,,,
CONCERN Professional Services,Mansfield Branch Office,63 3rd Street,Suite 103,Mansfield,PA,16933,,Tioga,570-662-7600,,,,http://www.concern4kids.org,41.7998466,-77.0739397,MH,2018-03-01 12:40:45.126,1,,,,,,1,,,1,1,1,1,1,1,,1,1,,1,1,,1,,,,,1,,,,,,,,1,1,1,,1,1,,,,,,1,,1,,1,,,,,,,,,,,,,,,,,,,,,,,,,,,,,1,,,,,,,,,,,,1,,,,,,1,1,1,1,,,,,,,,,,,,,,,,,,,,,,,,,,,,
CONCERN Professional Services,Partial Hospitalization,1 Dorsett Drive,,Mansfield,PA,16933,,Tioga,570-724-7142,,570-524-7142,,http://www.concern4kids.org,41.8050586,-77.077929,MH,2017-02-27 11:25:37,1,,,,,1,,,,,,,1,,1,,,1,,,,1,,,,,1,,,,,,,,,,1,,,1,,,,,,,,,1,,1,,,,,,,,,,,,,,,,,,,,,,,,,,,,,,,,,,,,,,,,,,,,,,,1,,,,,,,,,,,,,,,,,,,,,,,,,,,,,,,
Bloomsburg Psychological Center LLC,,816 Central Road,,Bloomsburg,PA,17815,,Columbia,570-387-1832,,,,http://www.bpcenter.com,41.022339,-76.421679,MH,2017-02-27 11:25:37,1,,,,,,1,,,1,1,1,1,1,1,1,1,,,,1,,1,,,,,1,,,,,,,,1,1,1,1,1,,,,,,,,,,,,,,,,,,,,,,,,,,,,,,,,,,,,,,,,,,,1,,,,,,,,1,1,,,,1,,1,1,1,1,,,,,,,,,,,,,,,,,,,,,,,,,,,,
BPC Annex,,16 Sherwood Drive ,,Bloomsburg,PA,17815,,Columbia,570-387-1832,,,,http://,41.001877,-76.423372,MH,2017-02-27 11:25:37,1,,,,,,1,,,1,1,1,1,1,,1,1,,,,,,1,,,,,1,,,,,,,,1,1,1,1,1,1,1,1,1,,,,,,1,,1,,,,,,,1,1,1,,1,1,1,1,1,,1,,1,1,1,1,,,,,,1,1,1,1,,,,,,,,1,1,1,,,1,,1,1,1,1,,1,,,,,,,,,,,,,,,,,,,,,,,,,,
Mount Nittany Medical Center,Behavioral Health Unit,1800 East Park Avenue,,State College,PA,16803,6709,Centre,814-231-7000 x3153,Intakes,814-231-7000 x6177,814-231-7000 x6110,http://mountnittany.org,40.819363,-77.842727,MH,2017-02-27 11:25:37,1,1,,,,,,,,1,1,1,,,1,,,1,,1,,1,,,1,,,,,,,,,,,1,1,1,1,1,1,1,1,,,,,,,,1,1,,,1,,,,,,,,,,,,,,,,,,,,,,,,,,1,,,,,,,1,1,,1,1,,,,1,,,1,1,1,,,,,,,,,,,,,,,,,,,,,,,,,,,,
Universal Community Behav Health,Outpatient Services Mifflin County,25 Rothermel Drive,,Yeagertown,PA,17099,,Mifflin,717-248-8197,,888-520-8224,,http://www.themeadows.net,40.6351212,-77.5790276,MH,2018-03-30 14:08:28.704,1,,,,,,1,,,1,1,1,1,,1,,1,,,1,,,1,,,,,1,,,,,,,,1,1,1,1,1,1,1,1,1,1,1,1,1,1,1,1,,,,1,,,,,,,,,,,,1,1,1,,,,,,,1,1,,1,1,,,,,,,,,,,1,1,,,,,,1,1,1,1,1,1,,,,,,,,,,,,,,,,,,,,,,,,,,
Psychological Clinic,Pennsylvania State University,314 Moore Building,,University Park,PA,16802,3103,Centre,814-865-2191,,,,http://www.psych.la.psu.edu/psychological-clinic,40.798736,-77.868974,MH,2017-02-27 11:25:37,1,,,,,,,1,,1,1,1,1,1,1,1,1,,,1,,,1,,,,,1,,,,,,,,1,1,1,1,1,,1,1,1,1,,1,,,,1,,1,,1,1,,,,,,,,,,,1,,1,,1,,,,,,,,,1,,,1,,1,,,,,,,,,,,1,,1,1,1,1,,,,,,,,,,,,,,,,,,1,,,,,,,,,,
Merakey Behavioral Health,,11 Anthra Plaza 148 State Route 2026,,Coal Township,PA,17866,,Northumberland,570-644-0808 x202,,570-644-0808,,http://nhsonline.org,40.7921916,-76.5216489,MH,2018-05-30 09:35:43.489,1,,,,,,1,,,1,1,1,1,1,,1,1,,,1,,,1,,,,,1,,,,,,,,1,1,1,,,,,,,,,1,,,,,,,,,,,,,,,,,,,,,,,,,,,,,,,,,1,,,,,,,,,1,,1,1,,,,1,,1,1,1,1,,,1,,,,,,,,,,,,,,,,,,,,,,,,,
Berwick Hospital Center,Berwick BH Services for Older Adults,701 East 16th Street,,Berwick,PA,18603,,Columbia,570-759-5160,,,,http://www.berwickhospital.com,41.071132,-76.231772,MH,2017-02-27 11:25:37,1,1,,,,,,,,1,1,1,1,,,,,1,,1,,1,,,1,,,,,,,,,,,1,1,1,1,1,,,,,,,,,,,,,,,,,,,,,,,,,1,,,,,1,1,,,,,,1,1,,,1,,1,,1,,,1,,,1,,,,,1,,,,1,1,,1,,,,,,,,,,,,,,,,,,,,,,,,,,
Beacon Light Behavioral Health Sys,Towanda Campus,117 Vankuren Drive,P.O Box 179-B,Towanda,PA,18848,,Bradford,570-265-9872,Intakes,814-817-1372,800-345-1780,http://www.beacon-light.org,41.7963297,-76.4880314,MH,2018-03-30 14:08:22.444,1,,1,,,,,,,1,,1,1,1,1,,1,,,1,,1,,,,1,,,,,,,,,,1,1,,1,1,,1,1,1,,,1,,,,1,,,,,,,,,,,,,,,,,1,,,,,,,,,,,,,,,1,,,,,,,,,,,,,,,1,,,,,,,,,,,,,,,,,,,,,,,,,,,,,,,
CONCERN Professional Services,Towanda Branch Office,319 Main Street,,Towanda,PA,18848,,Bradford,570-268-3073,,,,http://www.concern4kids.org,41.767156,-76.443084,MH,2017-02-27 11:25:37,1,,,,,,1,,,1,1,1,1,1,1,,1,1,,1,1,,1,,,,,1,,,,,,,,1,1,,,1,1,,,,,,1,,,,1,,,,,,,,,,,,,,,,,,,,,,,,,,,,,1,,,,,,,,,,1,,1,,,,,,1,1,1,1,,,,,,,,,,,,,,,,,,,,,,,,,,,,
Dickinson Center Inc,,1 North Main Street ,3rd Floor,Coudersport,PA,16915,,Potter,814-274-8651,,,814-274-0977,http://www.dickinsoncenter.org,41.77328,-78.0217643,MH,2018-01-24 12:37:25.624,1,,,,,,,,1,1,1,1,1,1,,,1,,,1,1,,1,,,,,1,,,,,,,,1,1,1,1,1,,,1,,,,1,,1,,1,1,,,1,,,,,,,,,1,,,,1,1,,,,,,,,,,1,1,,,,,,,,,,,,1,1,,,,,1,1,1,1,,,,,,,,,,,,,,,,,,,,,,,,,,,,
Cen Clear Child Services Inc,DBA CenClear,1633 Philipsburg Bigler Highway,,Philipsburg,PA,16866,,Centre,814-342-5845 x2511,Intakes,800-342-5845,814-342-5845,http://www.cenclear.org,40.909078,-78.24157,MH,2017-02-27 11:25:37,1,,,,,,,1,,1,1,1,1,1,1,,1,,,1,1,,1,,,,,1,,,,,,,,1,1,1,1,1,1,,,1,,1,1,,,1,,,,,1,,,,1,1,1,,,1,1,,1,,1,,,,1,,,,,,1,1,,1,1,,,,,,,,1,,1,,,,1,1,1,1,1,,,1,,,,,,,,,,,,,,,,,,,,,,,,,
Northeast Counseling Services,,121 South Prospect Street,,Nanticoke,PA,18634,2456,Luzerne,570-735-7590,,570-735-7590 x0,,http://www.northeastcounseling.org,41.203117,-76.002118,MH,2017-02-27 11:25:37,1,,,,,,1,,,1,1,1,1,,,,,,,1,,,1,,,,,1,,,,,,,,1,1,1,,,,,,,,,1,,,,1,1,1,1,,,,,,,,,,,,,,,,,,,,,1,1,,,1,1,,,,,,,,,,,1,,,,,,,1,1,1,1,,,1,,,,,,,,,,,,,,,,,,,,,,,,,
New Beginnings,,1851 West End Avenue,,Pottsville,PA,17901,,Schuylkill,570-622-9101,Intakes,570-622-9101 x0,570-773-3470 x0,http://,40.678233,-76.217686,MH,2017-02-27 11:25:37,1,,,,,,1,,,1,1,1,1,1,1,,1,,,1,,,1,,,,,1,,,,,,,,1,1,1,1,1,1,1,1,,,,1,,1,,,,,,,,,,,1,,,,,1,,1,1,1,,1,,,,,,,,,1,,,1,,1,,,,,,,,,,,,,1,1,1,1,,,,,,,,,,,,,,,,,,,,,,,,,,,,
Lebanon VAMC,Pottsville VA Outpatient Clinic,1410 Laurel Boulevard,Suite 2,Pottsville,PA,17901,,Schuylkill,570-628-5374,Intakes,800-409-8771,717-272-6621,http://www.lebanon.va.gov,40.6845568,-76.2112745,MH,2018-07-25 10:15:58.377,1,,,,,,,,,1,1,1,1,,1,1,1,,,1,1,,1,,,,,1,,1,,,,,,1,,1,,1,1,,,,,,,,,1,,1,,,1,,,,1,,1,,,,,,,,,,1,,,,,,1,1,,1,1,,1,1,1,1,1,1,1,,1,1,,1,,1,,,1,1,1,,,,,,,,,1,,,,,,,,,,,,,,,,,,,
Redco Group Behav Health Servs,Turning Point,16 South Centre Street,,Pottsville,PA,17901,,Schuylkill,570-628-5234,Intakes,570-628-5234 x114,570-628-5234 x0,http://www.redcogrp.com/,40.684894,-76.194255,MH,2017-02-27 11:25:37,1,,,,,,,,1,1,1,1,1,1,1,,1,,,1,1,,1,,,1,,1,,,,,,,,1,1,1,1,1,1,1,,,,,1,1,1,,,,,,1,,,,,,,,,,,,1,,,,1,,,,,,,,1,1,,,,,1,,,,,,,,,,,,1,1,1,1,1,,1,,,,,,,,,,,,,,,,,,,,,,,,,,
Lehigh Valley Health/Schuylkill East,Senior Behavioral Health Unit,700 East Norwegian Street,,Pottsville,PA,17901,,Schuylkill,570-621-4060,Intakes,570-621-5673,570-621-4960,http://www.schuylkillhealth.com,40.6907205,-76.1885139,MH,2018-02-06 09:50:18.15,1,1,,,,,,,,1,,1,,,,,,1,,1,,1,,,1,,,,,,,,,,,1,1,1,1,1,,,,,,,,,,,,1,,,1,,,,1,,,,,,1,,,,,1,,,,,,,1,,,,1,1,,,1,,,1,,,1,1,,,,,,,,,1,,,,,,,,,,,,,,,,,,,,,,,,,,,,
Community Services Group,,2330 Vartan Way,Suite 204,Harrisburg,PA,17110,,Dauphin,877-907-7970,,,,http://www.csgonline.org/,40.3175044,-76.8548262,MH,2017-02-27 11:25:37,1,,,,,,,,1,1,1,1,1,1,1,1,1,,,1,1,,1,,,1,,1,,,,,,,,1,1,1,1,1,1,1,1,1,,,1,,1,,1,,,,,1,,,,,,,,,,,1,,,,1,,1,,,,,1,,1,,,1,,1,,,,,,1,,,,1,1,,1,1,1,1,,1,,,,,,,,,,,,,,,,,,,,,,,,,,
Lehigh Valley Hospital Schuylkill,,420 South Jackson Street,,Pottsville,PA,17901,3625,Schuylkill,570-621-5000 x5529,Intakes,570-621-5500,570-621-5673,http://www.schuylkillhealth.com,40.6839222,-76.1882083,MH,2018-01-24 13:50:34.859,1,1,,,,,,,,1,,1,1,,,,,1,,1,,1,,,1,,,,,,,,,,,1,1,1,1,1,,1,1,,,,1,,,,1,1,,,1,1,,,,,,,,,,,,,,,,,,,,1,1,1,,1,1,1,1,1,1,1,,1,,1,1,1,,1,,1,,1,1,1,,,,1,,,,,,,,,,,,,,,,,,,,,,,,,
Merakey Pennsylvania,,703 South Elmer Avenue,Suite 115,Sayre,PA,18840,,Bradford,570-888-0051,,,,http://www.nhsonline.org,41.9737816,-76.517626,MH,2018-05-08 14:02:20.652,1,,,,,,,,1,,,,1,,1,,1,,,,,,1,,,,,1,,,,,,,,,1,1,1,1,,1,1,1,1,1,1,,,,,,,,,,,,,,,,,,,,1,1,,,,,,,,,,,,,,,1,,,1,,,,,,,,,1,,,1,1,1,1,,,1,,,,,,,,,,,,,,,,,,,,,,,,,
Robert Packer Hospital,,1 Guthrie Square,,Sayre,PA,18840,,Bradford,570-888-6666 x5120,,570-887-6550,,http://,41.9872,-76.5338,MH,2017-02-27 11:25:37,1,1,,,,,,,,1,,1,1,1,1,1,1,1,,1,,1,,,1,,1,,,,,,,,,1,1,1,1,1,1,,1,1,,,1,1,1,1,1,1,,,1,,,,1,1,1,1,1,,1,1,1,1,1,,1,1,1,,,,1,,,,1,1,1,,,,,1,1,,1,1,,,,1,,1,1,1,1,1,,,,,,,,,,,,,,,,,,,,,,,,,,,
Family Services of Chemung Cnty Inc,Adult Mental Health Servs Clinic Sa,310 Pennsylvania Avenue,,Elmira,NY,14904,,Chemung,607-737-2490,,,607-733-5696,http://www.familyservicesofchemung.com,42.0835206,-76.8011357,MH,2018-03-30 13:54:31.746,1,,,,,,1,,,1,1,1,1,1,,1,1,,,1,,,1,,,,,1,,,,,,,,1,1,1,1,1,,1,,,,,1,,,,1,1,1,,1,,,,,,,,,1,,,,,,,,,,,,,1,,,,,,1,,,,,1,1,,1,1,,,,1,,,1,1,1,,,,,,,,,,,,,,,,,,,,,,,,,,,,
Beacon Light Behavioral Health Sys,,6395 Clearfield Woodland Highway,Suite 3,Clearfield,PA,16830,,Clearfield,814-205-4014,,,,http://www.beacon-light.org,41.014378,-78.400816,MH,2018-03-30 14:07:53.816,1,,,,,,1,,,1,1,1,1,1,1,,1,1,,,,1,,,,,,1,,,,,,,,,1,,,1,,,,,,,,,,,1,,,,,,,,,,,,,,,,,1,,,,,,,,,1,,,,,,1,,,,,,,,,,,,,,,1,,,,,,,,,,,,,,,,,,,,,,,,,,,,,,,
Elmira Psychiatric Center,EPC Child and Yth Outpt Serv,414 Davis Street,,Elmira,NY,14901,,Chemung,607-733-2901,,,,http://,42.0909698,-76.8145199,MH,2018-03-30 13:54:30.69,1,,,,,,1,,,1,1,1,1,,1,,1,,,1,,1,,,,,,1,,,,1,,,,1,1,1,1,1,,1,,,1,1,1,,,,,,,,1,,,,1,,,,,,,,1,1,,,,,,,,,,,1,,1,,1,,1,,,,,,1,1,,,,1,,1,1,,,,,,,,,,,,,,,,,,,,,,,,,,,,,,
TrueNorth Wellness Services,,5351-C Jaycee Avenue,Suite 1,Harrisburg,PA,17112,,Dauphin,717-657-2080,Intakes,800-315-0951,717-632-4900,http://www.truenorthwellness.org,40.317377,-76.798331,MH,2018-03-26 10:20:35.042,1,,,,,,1,,,1,1,1,1,,1,,1,,,1,,,1,,,,,1,,,,,,,,1,1,1,1,1,1,,,,,,,,,,,,1,,1,,,,,,,,,,,,,,,,,,,,,,,,,,,,1,,,,,,,,1,,,,,,,1,1,1,1,,,1,,,,,,,,,,1,,,,,,,,,,,,,,,
Family Services of Chemung Cnty Inc,Eastside Family Medicine Satellite,200 Madison Avenue,Suite 2-B,Elmira,NY,14901,,Chemung,607-732-1310,,,607-733-5696,http://www.familyservicesofchemung.com/,42.0912263,-76.7984768,MH,2018-03-30 13:54:34.079,1,,,,,,1,,,1,1,,1,,,,,,,,,1,,,,,,1,,,,,,,,1,1,1,,1,,1,,,,,,,,,1,,,,1,,,,,,,,,,,,,,,,,,,,,,1,,,,,,1,,,1,,,,,1,1,,,,,,1,1,1,1,,,,,,,,,,,,,,,,,,,,,,,,,,,,
Elmira Psychiatric Center,EPC Community Clinic,100 Washington Street,,Elmira,NY,14901,,Chemung,607-737-4711,,607-737-4800,,http://www.omh.ny.gov,42.090643,-76.794984,MH,2017-02-27 11:25:37,1,,,,,,1,,,1,,1,1,1,,,1,,,1,,1,,,,,,1,,,1,,,,,1,1,1,1,1,,1,,,1,1,1,,,,,,,,1,,,,1,,,,,,,,1,,,,,,,,,,,,1,,1,,,,1,,,1,1,1,1,1,1,,,1,1,,1,1,1,,,,,,,,,,,,,,,,,,,,,,,,,,,,
Arnot Health Saint Josephs Hospital,Behavioral Science Unit,555 Saint Josephs Boulevard,Unit C-1,Elmira,NY,14901,,Chemung,607-733-6541,,,,http://,42.09213,-76.79721,MH,2017-02-27 11:25:37,1,1,,,,,,,,1,,1,1,1,1,1,1,,,1,,1,,,1,,,,,,,,,,,1,1,1,1,1,1,,,,,,,,,,,,,,1,,,,,,,,,,,,,,1,,,,,,,,1,,,,,,,,,,,1,,,1,1,,,,1,,,1,1,1,,,,,,,,,,,,,,,,,,,,,,,,,,,,
Family Services of Chemung Cnty Inc,Chemung County Crisis Program,1019 East Water Street,,Elmira,NY,14901,,Chemung,607-733-5696,,,,http://www.familyservicesofchemung.com,42.090206,-76.789385,MH,2018-03-30 13:54:32.934,1,,,,,,1,,,1,1,,1,,,,1,,,1,,,1,,,,,1,,,,,,,,1,1,1,,1,1,1,1,,,1,1,,,,1,1,1,,1,,,,,,,,,,,,,,,,,,,,,,1,,,,,,1,,,,,,,,,1,,,,,,1,1,1,1,,,,,,,,,,,,,,,,,,,,,,,,,,,,
Community Guidance Center,,600 Leonard Street,,Clearfield,PA,16830,,Clearfield,814-765-5337,Intakes,814-371-1100,888-686-1991,http://www.thecgc.com,41.021645,-78.4112339,MH,2017-02-27 11:25:37,1,,,,,,,1,,1,1,1,1,1,1,,1,1,,1,1,,1,,,,,1,,,,,,,,1,1,1,,1,,,,,,,1,1,1,,,,1,1,1,,,,1,,,,,1,1,,1,1,1,,,,,,,1,1,1,1,,,,1,1,1,,,,,1,1,1,,,,,1,1,1,1,1,,,,,,,,,,,,,,,,,,,,,,,,,,,,
Pennsylvania Psychiatric Institute,Division Street Clinic,401 Division Street,"Suite 2, 2nd Floor",Harrisburg,PA,17110,,Dauphin,717-782-4349,,717-782-6493,,http://www.ppimhs.org,40.291078,-76.899006,MH,2017-04-07 12:07:09,1,,,,,1,,,,1,1,1,1,1,,,1,,,1,,,1,,,,1,1,,,,,,,,1,1,1,1,1,1,1,,,,,,,,,,,,,1,,,,,,,,,,,,,,,,,,,,,,,,1,,,,,,,,,,,,1,,,,,,,1,1,1,1,,,1,,,,,,,,,,,,,,,,,,,,,,,,,
JC Blair Memorial Hospital,Behavioral Health Services,1225 Warm Springs Avenue,,Huntingdon,PA,16652,,Huntingdon,814-643-8880,,,814-643-7098,http://www.jcblair.org,40.4930697,-78.014318,MH,2017-02-27 11:25:37,1,1,,,,,,,,1,,1,1,1,,,,1,,1,,1,,,1,,,,,,,,,,,1,1,1,1,1,1,1,1,,,,1,,,1,1,,,,1,,,,,1,,,,,1,,,,1,,1,,,,,,1,,,,1,,,,,1,,1,,,1,,,,,1,,1,1,1,1,,,1,,,,,,,,,,,,,,,,,,,,,,,,,
Pennsylvania Psychiatric Institute,Pinnacle Health Behavioral Services,2501 North 3rd Street,,Harrisburg,PA,17110,,Dauphin,717-782-2160,,717-782-6493,,http://www.ppimhs.org,40.285617,-76.898638,MH,2017-02-27 11:25:37,1,,,,,,1,,,1,1,1,1,1,1,,1,1,1,1,,1,,,,,,1,,,,,,,,1,1,1,,1,1,,1,,,,1,,,,1,,,1,1,1,,,,,,,,,1,,,,,1,,,,,,,,1,,1,1,,1,,1,1,,,1,,1,1,,,,1,,1,1,1,1,,,1,,,1,,,,,,,,,,,,,,,,,,,,,,
Commonwealth Clinical Group Inc,,2444 North 3rd Street,,Harrisburg,PA,17110,,Dauphin,717-236-3600 x303,Intakes,844-331-3551,717-393-3900,http://,40.2852503,-76.8989603,MH,2018-07-25 10:14:03.606,1,,,,,,1,,,1,1,1,1,,,,,,,1,,,1,,,,,1,,,,,,,,1,,,1,1,,1,1,1,,1,1,,,1,,,,,,1,,,,,,,,1,,,1,1,1,,1,,,,,,,,,1,,,,,,,,,,,,1,,,,,,1,1,1,1,,1,,,,,,,,,,,,,,,,,,,,,,,,,,
Steuben County Community Service,,114 Chestnut Street,,Corning,NY,14830,,Steuben,607-937-6201,,,,http://,42.144548,-77.0584,MH,2017-02-27 11:25:37,1,,,,,,,1,,1,1,1,1,1,1,,1,,,1,,,1,,,,,1,,,,1,,,,1,1,1,1,1,1,1,,,,,1,,,,1,,,,1,,,,,,,,,,,,,,,,,,,,,1,1,,,1,,,1,,,,,,,,1,1,,,,,,1,1,1,1,,,,1,,,,,,,,,,,,,,,,,,,,,,,,
Universal Community Behav Hlth,Outpatient Servs Huntingdon Cnty,620 Washington Street,,Huntingdon,PA,16652,,Huntingdon,814-643-0309,,888-520-8224,,http://www.themeadows.net,40.486188,-78.0143758,MH,2018-03-30 14:08:04.201,1,,,,,,1,,,1,1,1,1,,,,1,,,1,,,1,,,,,1,,,,,,,,1,1,1,1,1,1,1,1,1,1,1,1,1,1,1,1,,,,1,,,,,,,,,,,,1,1,1,,,,,,,1,1,,,1,,,,,,,,,,,1,1,,,,,,1,1,1,1,1,1,,,,,,,,,,,,,,,,,,,,,,,,,,
Youth Advocates Program,,2030 North 3rd Street,,Harrisburg,PA,17102,,Dauphin,717-232-3786,Intakes,717-232-3150,717-232-3106,http://www.yapinc.org,40.278664,-76.895962,MH,2017-02-27 11:25:37,1,,,,,,1,,,1,1,1,1,,1,,1,1,,1,,,1,,,,,1,,,,,,,,1,,1,,,,,1,,,1,1,,,,,1,,,1,,,,,,,,,,,,,1,,,,,,,,,,,,1,,,,,,,,,,,1,,,,,,,1,1,1,1,,,1,,,,,,,,,,,,,,,,,,,,,,,,,
Family Services of Chemung Cnty Inc,Southern Tier Integrated Recov Servs,1149 Sullivan Street,,Elmira,NY,14901,,Chemung,607-733-7661,,,607-733-5696,http://www.familyservicesofchemung.com,42.1092236,-76.8029835,MH,2018-03-30 13:54:34.976,1,,,,,,1,,,1,,1,1,1,,1,1,1,,1,,,1,,,,,1,,,,,,,,1,1,1,,1,,1,,,1,1,,,,,1,,,,1,,,,1,1,,,,1,,,1,,1,,1,,,,,,1,1,1,1,1,,1,,1,,1,1,1,1,1,1,1,,,1,1,,1,1,1,,,,,,,,,,,,,,,,,,,,,,,,,,,,
Merakey ,Partial Hospitalization Program,1801 North Front Street,1st Floor,Harrisburg,PA,17102,,Dauphin,717-238-8852 x114,,,717-238-8852 x118,http://,40.2740177,-76.8966411,MH,2018-07-25 10:15:00.837,1,,,,,1,,,,1,1,1,1,1,,,1,1,,1,,,1,,,,1,,,,,,,,,,1,,,,1,1,,,,,1,,,,,,,,,,,,1,,,,,,,,1,,,,1,,,,,,,,,1,,,,,1,,,,,,1,1,,,,1,,,1,1,1,,,,,,,,,,,,,,,,,,,,,,,,,,,,
Pennsylvania Counseling Services,Dauphin,4918 Locust Lane,,Harrisburg,PA,17109,,Dauphin,717-671-9610,,855-272-1653,,http://www.pacounseling.com,40.293233,-76.807065,MH,2017-02-27 11:25:37,1,,,,,,1,,,1,1,1,1,1,1,1,1,,,1,,,1,,,,,1,,,,,,,,1,1,1,1,1,1,1,1,1,1,1,1,,,,,,,,,,,,1,,,,,,,,,,,,,,,,,,,,,1,,,1,,,,,,,,,1,,,,,,1,1,1,1,,,,,,,,,,,,,,,,,,,,,,,,,,,,
Pennsylvania Counseling Services,Dauphin,200 South Progress Avenue,,Harrisburg,PA,17109,,Dauphin,717-526-4881,,717-526-4881 x0,,http://www.pacounseling.com,40.283081,-76.839361,MH,2017-02-27 11:25:37,1,,,,,,1,,,1,1,,,,1,,,,,,,,1,,,,,1,,,,,,,,,,1,,,,,,,,,1,,,,1,,,,,,,,,,,,,,,,,1,,,,,,,,,,,,1,,,1,,,,,,,,,,,,,,,1,,,,,,,,,,,,,,,,,,,,,,,,,,,,,,,
WellSpan Philhaven,,2601 Herr Street,,Harrisburg,PA,17103,,Dauphin,717-230-9622,,800-932-0359,,http://www.philhaven.org,40.2806746,-76.8501633,MH,2017-08-29 14:47:41.337,1,,,,,,,,1,1,1,1,1,1,1,1,1,1,,1,1,1,,,,,1,1,,,,,,,,1,1,1,1,1,,1,1,1,1,1,1,1,1,,,,,1,1,1,,,1,,,,,,,,1,,,,,,,,,,,1,1,1,,,1,,1,,,,,1,1,1,,,,1,,1,1,1,1,,,,,,,,,,,,,,,,,,,,,,,,,,,,
TW Ponessa and Associates,Counseling Services Inc,900 North 6th Street,,Harrisburg,PA,17102,,Dauphin,717-233-4027,,800-437-5405,,http://www.twponessa.com,40.267462,-76.884662,MH,2018-06-12 13:47:49.681,1,,,,,,1,,,1,1,,1,,1,,1,,,1,,1,,,,,,1,,,,,,,,1,1,1,1,1,1,1,,1,,1,1,,,,,,,,1,1,,,1,,,,,,,,,,,,,,,,,,,,,,,,,,,,,,,,,,,,,,,1,1,1,1,,1,,,,,,,,,,,,,,,,,,,,,,,,,,
Northeast Counseling Services,,750 East Broad Street,,Hazleton,PA,18201,,Luzerne,570-455-6385,,,,http://www.northeastcounseling.org,40.94981,-75.96348,MH,2017-02-27 11:25:37,1,,,,,,,1,,1,1,1,1,,,,,1,,1,,,1,,,,1,1,,,,,,,,1,1,1,,,,,,,,,1,,,,1,1,1,1,,1,,,,,,,,,,,,,,,,,,,,,,,1,,,,1,,,,,,,1,1,,,,,,,1,1,1,1,,,1,,,,,,,,,,,,,,,,,,,,,,,,,
Pressley Ridge,,121 Locust Street,,Harrisburg,PA,17101,,Dauphin,717-238-8118,Intakes,717-397-5241 x127,717-238-8118 x0,http://www.pressleyridge.org/cb,40.260539,-76.884319,MH,2017-02-27 11:25:37,1,,,,,,1,,,1,1,1,1,1,1,,1,1,,1,,,1,,,,,1,,,,,,,,1,1,,1,1,1,,1,1,,,1,1,1,,,,1,,1,1,,,,,,,,,,,,1,1,,,,,,,,1,,,1,,,1,,,,,,,,1,1,,,,,,1,1,1,1,,,,,,,,,,,,,,,,,,,,,,,,,,,,
Catholic Charities,Capital Region Counseling,939 East Park Drive,Suite 101,Harrisburg,PA,17111,,Dauphin,717-233-7978,,,,http://www.cchbg.org/get-help/counseling-services/,40.2743426,-76.8138948,MH,2017-02-27 11:25:37,1,,,,,,1,,,1,1,,1,,,,,,,1,,,1,,,,,1,,,,,,,,1,1,,,,,,,,,,1,,,,,,1,1,,,,,,,,,,,,,1,,,,,,,,,,,,,,,,,,,,,,,,1,,,,,,,1,1,1,1,,,1,,,,,,,,,,,,,,,,,,,,,,,,,
Geisinger Holy Spirit,Behavioral Health,503 North 21st Street,,Camp Hill,PA,17011,,Cumberland,717-763-2219,,717-763-2228,,http://www.hsh.org,40.2501643,-76.9225686,MH,2018-01-26 14:16:08.153,1,1,,,,,,,,1,1,1,1,,,1,,1,,1,,1,,,1,,1,1,,,,,,,,1,1,1,1,1,,1,1,,,1,1,1,1,,1,1,,,1,,,,,,,,,,,,,,1,,,,,,,1,1,1,1,,,,1,,,1,,,,,,1,,,,,,,1,1,1,,,1,,,,,,,,,,,,,,,,,,,,,,,,,
Lebanon VAMC,Camp Hill Outpatient Clinic,25 North 32nd Street,,Camp Hill,PA,17011,,Cumberland,717-730-9782,Intakes,800-409-8771,717-272-6621,http://www.lebanon.va.gov,40.2407937,-76.9345075,MH,2018-03-07 17:17:25.539,1,,,,,,,,,1,1,1,1,,1,1,1,,,1,1,,1,,,,,1,,1,,,,,,1,,1,,1,1,,,,,,,,,1,,1,,,1,,,,1,,1,,,,,,1,,1,,1,,,,,1,1,1,1,1,1,,1,1,1,1,1,1,1,,1,1,1,1,,1,1,,1,1,1,,,,,,,,,,,,,,,,,,,,,,,,,,,,
Childrens Service Center of,Wyoming Valley Inc,335 South Franklin Street,,Wilkes Barre,PA,18702,,Luzerne,570-825-6425,,877-433-5112,,http://www.cscwv.org/,41.241646,-75.893143,MH,2017-02-27 11:25:37,1,,,,,,,,1,1,1,1,1,1,1,,1,,,1,1,1,,,,1,1,1,,,,,,,,1,,1,,1,1,1,1,,,,1,,1,,1,1,,,1,1,,,1,1,,,,1,,,1,1,1,,1,,,,,,1,,1,,,1,1,,,1,,,,,,1,1,,,,,1,1,1,1,,,1,,,,,,,,,,1,,,,,,,,1,,,,,,,
Elmira Psychiatric Center,Southern Tier Day Treatment,459 Philo Road,,Elmira,NY,14903,,Chemung,607-739-3581,,607-795-2244,,http://www.omh.ny.gov/omhweb/facilities/elpc,42.148992,-76.835096,MH,2017-02-27 11:25:37,1,,,,,,,,1,1,,1,1,1,,,1,,,1,1,1,,,,,,1,,,1,,,,,1,1,1,1,1,,1,,,1,1,1,,,,,,,,,,,,,,,,,,,,,1,,,,,,,,,,,,,,1,1,,,,,,,,,1,,,,,,1,,,,,,,,,,,,,,,,,,,,,,,,,,,,,,,
Merakey Behavioral Health,Outpatient,1100 South Cameron Street,,Harrisburg,PA,17104,,Dauphin,717-238-7662 x208,,717-238-7662,,http://www.nhsonline.org,40.249502,-76.8653397,MH,2018-07-25 10:15:08.746,1,,,,,,1,,,1,1,1,1,1,1,,1,,,1,1,,1,,,,,1,,,,,,,,1,1,1,1,,,1,1,,,,1,,1,,,,,,1,1,,,,1,1,1,1,1,1,1,1,1,1,,1,,1,1,,,,,,1,1,,1,,,1,,,,,1,,,,,1,,1,1,1,1,,,1,,,,,,,,,,,,,,,,,,,,,,,,,
First Hospital Wyoming Valley,,562 Wyoming Avenue,,Kingston,PA,18704,3721,Luzerne,570-552-3900,,570-552-3910,,http://,41.269518,-75.88892,MH,2017-02-27 11:25:37,1,1,,,,,,,,1,,1,1,1,,1,1,1,,,,,1,,1,,,,,,,,,,,1,1,1,1,1,1,1,1,,,,1,,,,1,,,,,,,,,,,,,,,,,,,,,,,,1,1,1,1,,,,,,,,,,,,,,,,,,,,1,1,1,1,,,,,,,,1,,,,,1,,,,,,,,,,,,,,,
Community Counseling Services,,110 South Pennsylvania Avenue,,Wilkes Barre,PA,18701,,Luzerne,570-552-6000,,,,http://www.commonwealthhealth.net/medical-services/behavioral-health-center,41.2413586,-75.8828721,MH,2018-05-30 09:39:31.21,1,,,,,,,1,,1,1,1,1,1,1,,1,1,,1,,,1,,,,1,1,,,,,,,,1,1,1,1,1,1,1,1,1,1,1,1,1,1,1,1,1,1,1,1,,,,,,,,,,1,,,,,,,,,,,,1,,1,1,,1,1,,,,,,,1,,1,1,1,,,1,,1,1,1,1,1,,,,,,,,,,,,,,,,,,,,,,,,,,
CSC,Tunkahannock,133 West Tioga Street,,Tunkhannock,PA,18657,,Wyoming,570-836-2722,,,877-433-5112,http://www.cscwv.org,41.541283,-75.956566,MH,2017-02-27 11:25:37,1,,,,,,1,,,1,1,1,1,1,1,,1,,,1,1,1,,,,,,1,,,,,,,,1,1,1,1,1,1,1,1,,,,1,,,,1,1,,,1,,,,,1,,,,,1,,1,1,1,,1,,1,,,,1,,1,,,,1,,,,,,,,,1,,,,,,1,1,1,1,,,1,,,,,,,,,,1,,,,,,,,,,,,,,,
Crisis Response and Recovery Center ,,575 North River Street ,,Wilkes Barre,PA,18702,,Luzerne,570-552-6082,,570-552-6090,,http://commonwealthhealth.net,41.2584151,-75.8666314,MH,2017-02-27 11:25:37,1,,,,,,,,1,1,,1,1,,,,,1,,1,1,1,,,,1,,1,,,,,,,,,1,,,,,1,,,,1,,,1,,1,1,,1,1,,,,,,,,,,,,,,,,,,,,,,,,,,,,,,,,,,,,1,1,,,,,,,1,1,1,,1,,,,,,,,,,,,,,,,,,,,,,,,,,
Diakon Family Life Services,,960 Century Drive,,Mechanicsburg,PA,17055,,Cumberland,717-795-0330,,,,http://www.diakon.org/child-family-community-ministries/,40.2144662,-76.9607143,MH,2018-03-07 15:20:43.88,1,,,,,,1,,,1,1,1,1,1,1,1,1,,,1,,1,,,,,,1,,,,,,,,1,1,1,,1,1,1,1,1,,1,1,1,1,1,,,,,,,,,1,,,,,,,,1,,1,,1,,,,,,1,,,1,,,,,,,,,,,1,,,,,,,1,1,1,1,,,,,,,,,,,,,,,,,,,,,,,,,,,,
Beacon Light Behavioral Health Sys,,717 East Mill Street,,Port Allegany,PA,16743,,McKean,814-545-1921,,814-817-1400,,http://www.beacon-light.org,41.8154348,-78.2698744,MH,2018-03-30 14:08:17.869,1,,,,,1,,,,1,1,1,1,,,,,,,,,1,,,,,1,,,,,,,,,1,1,,1,1,,1,1,1,1,1,1,,,,1,,,,,,,,,,,,,,,,,1,,,,,,,,,,,,,,1,,,,,,,,,,,,,,,,1,,,,,,,,,,,,,,,,,,,,,,,,,,,,,,,
Merakey,Stevens Center,33 State Avenue,,Carlisle,PA,17013,4432,Cumberland,717-243-6033 x269,,717-243-6033,,http://nhsonline.org,40.1805737,-77.1883254,MH,2018-06-12 13:55:53.462,1,,,,,,,1,,1,1,1,1,1,1,1,1,,,1,1,,1,,,,1,1,,,,,,,,1,1,1,,1,,,1,,,1,1,,1,,,,,1,1,1,,,1,,,,,,,,,1,1,,,,1,,,1,1,,1,1,,,,,,,,,,,,,,,,,,1,1,1,1,,,1,1,,,,,,,,,,,,,,,,,,,,,,,,
Wilkes Barre VAMC,,1111 East End Boulevard,,Wilkes Barre,PA,18711,0030,Luzerne,570-824-3521 x7197,,570-824-3521 x7738,,http://,41.2479987,-75.8355952,MH,2018-03-07 17:17:19.542,1,,,,,,,,,1,1,1,1,1,1,1,1,1,,1,1,,1,,1,1,,1,,1,,,,,,1,1,,,1,1,,,,,,,,,1,,1,,,1,1,,,1,1,1,,,1,1,1,1,,1,1,1,1,,1,,1,,1,1,1,1,1,1,1,1,1,1,1,1,1,1,1,1,1,,1,1,,1,1,1,1,,,,1,,,,,,,,,,,,,,,,,,,,,,,
TW Ponessa and Associates Csl Servs,,15 South 9th Street,,Lebanon,PA,17042,,Lebanon,717-273-5992,,800-437-5405,,http://www.twponessa.com,40.338641,-76.426692,MH,2017-02-27 11:25:37,1,,,,,,1,,,1,1,,1,,1,,1,,,1,,1,,,,,,1,,,,,,,,1,1,1,1,1,1,1,,,,1,1,,,,,,,,1,1,,,1,,,,,,,,,,,,,,,,,,,,,,,,,,,,,,,,,,,,,,,1,1,1,1,,1,,,,,,,,,,,,,,,,,,,,,,,,,,
Philhaven,,204 Hathaway Park,Suite 150,Lebanon,PA,17042,6162,Lebanon,717-274-9777 x5216,Intakes,717-279-2760,800-459-7497,http://www.wellspanphilhaven.org,40.335921,-76.414804,MH,2017-02-27 11:25:37,1,,,,,,1,,,1,1,1,1,1,,,1,,,1,,1,,,,,,1,,,,,,,,1,1,1,1,1,,,,,,,,,,,,,,1,1,1,,,,,,,,,,,,,,,,,,,,,,,,,,,1,,,,,,,,,1,,,,,,1,1,1,1,,,,,,,,,,,,,,,,,,,,,,,,,,,,
Penn Highlands Elk,,763 Johnsonburg Road,,Saint Marys,PA,15857,,Elk,814-788-8867,,814-788-8876,,http://www.phhealthcare.org,41.4325356,-78.5820211,MH,2018-01-26 11:20:32.403,1,1,,,,,,,,1,,1,,,1,,1,1,,1,,1,,,1,,,,,,,,,,,1,1,1,1,1,1,,,,,,,,,,1,1,,,1,,,,,,,,,,1,,,,,1,,,,,,,1,1,,,1,1,1,1,1,1,1,1,1,1,1,1,,,,1,,,,1,1,,,,,,,,,,,,,,,,,,,,,,,,,,,,
Lebanon VA Medical Center,Behavioral Health and Sciences,1700 South Lincoln Avenue,,Lebanon,PA,17042,,Lebanon,717-272-6621,,800-409-8771,,http://www.lebanon.va.gov,40.3186755,-76.3982277,MH,2018-03-07 17:17:23.628,1,,,,,,,,,1,1,1,1,1,1,1,1,1,,1,1,,1,,1,1,1,1,,1,,,,,,1,,1,,1,1,,,,,,,,,1,,1,,,1,1,,,1,,1,,,,1,,1,,1,,1,1,,,,1,1,1,1,1,1,,1,1,1,1,1,1,1,1,1,1,1,1,,1,1,,1,1,1,,,,,1,,,,1,,,,,,,,,,,,,,,,,,,
Elmira Psychiatric Center,Wellsville Clinic Satellite,41 North Broad Street,,Wellsville,NY,14895,,Allegany,585-593-3852,,,,http://www.omh.ny.gov,42.120791,-77.944125,MH,2017-02-27 11:25:37,1,,,,,,1,,,1,,1,1,1,,,1,,,1,,1,,,,,,1,,,1,,,,,1,1,1,1,1,,1,,,,1,1,,,,,,,,1,,,,1,,,,,,,,1,,,,,,,,,,,,,,1,,,,1,,,1,1,1,1,,1,,,1,1,,1,1,1,,,,,,,,,,,,,,,,,,,,,,,,,,,,
Allegany Rehabilitation Associates Inc,The Counseling Center,4220 State Route 417 West,,Wellsville,NY,14895,,Allegany,585-593-6300,,,,http://www.ARAservices.com,42.125938,-77.96979,MH,2017-02-27 11:25:37,1,,,,,,1,,,1,1,,1,1,1,1,1,,,1,1,,1,,,,,1,,,,,,,,1,1,1,1,1,,1,1,,1,1,1,1,1,1,1,1,,,1,,,,,,,,,,,,1,,,,1,,,,,,1,,,1,,,1,,1,,,1,1,,1,1,,,,1,,1,1,1,1,,,1,,,,,,,,,,,,,,,,,,,,,,,,,
Allegany Rehabilitation Associates Inc,Personalized Recovery Oriented Serv,4222 Bolivar Road,,Wellsville,NY,14895,,Allegany,585-593-1655 x113,,585-593-1655,,http://WWW.ARASERVICES.com/,42.126667,-77.969982,MH,2018-03-30 14:06:15.405,1,,,,,,1,,,1,1,1,1,1,,1,1,,,1,,,1,,,,,1,,,,,,,,1,1,1,,,,,,,,,,,,,,,,,1,,,,1,,,,,,,,,,1,,1,,,,,,,,,,1,,1,,1,,,1,1,1,1,1,1,,,1,1,,1,1,1,,,1,,,,,,,,,,,,,,,,,,,,,,,,,
Eihab Human Services,,1200 South Route 92,,Tunkhannock,PA,18657,,Wyoming,570-388-6155 x451,Intakes,570-388-6155 x0,570-240-0898,http://eihab.org,41.604935,-75.833487,MH,2017-02-27 11:25:37,1,,1,,,,,,,1,1,1,1,,,,1,1,,1,,1,,,,1,,,,,,,,,,1,1,,1,1,1,,1,1,,,1,,,,1,,1,,,,,,1,,,,,,,,1,,,,,,,,,,1,,,1,,1,,,,,,,,,1,1,,,,,,1,,,,,,1,,,,,,,,,,,,,,,,,,,,,,,,,
Wellsville Community Based,Outpatient Clinic,3458 Riverside Drive,Route 19,Wellsville,NY,14895,,Allegany,607-664-4300,,,,http://www.bath.va.gov,42.1490705,-77.9732495,MH,2018-03-07 17:16:11.574,1,,,,,,,,,1,1,,1,1,1,1,1,,,1,1,1,,,,,,1,,1,,,,,,1,,,,1,1,,,,,,,,,1,,,,,,,,,,,1,,,,,,,,,,,,,,,,1,1,,,1,1,1,,1,1,,1,1,,1,1,,,,1,,,1,1,1,,,,,1,,,,,,,,,,,,,,,,,,,,,,,
Guidance Center,,415 West Main Street,,Smethport,PA,16749,,McKean,814-887-5591,,814-362-6535,,http://www.guidancecenter.net/,41.8094962,-78.4459298,MH,2018-08-07 13:28:21.843,1,,,,,,1,,,1,1,,1,,,,1,,,1,,,1,,,,,1,,,,,,,,1,1,1,1,1,1,1,1,1,1,1,1,,,1,,,1,,1,,,,,,,,,,,,,,,,,,,,,1,,,,,,1,,,,,,,,,1,,,,,,,1,1,1,1,,,1,,,,,,,,,,,,,,,,,,,,,,,,,
Home Nursing Agency Behavioral Health,Community Health Center,500 East Chestnut Avenue,,Altoona,PA,16601,,Blair,814-943-0414,,,800-445-6262,http://www.homenursingagency.com,40.5307032,-78.3886434,MH,2018-09-18 11:22:51.921,1,,,,,,,,1,1,1,1,1,1,1,1,1,,,1,,,1,,,,1,1,,,,,,,,1,1,,1,1,,1,1,1,1,1,1,,1,1,,,,,1,,,,1,,,,,,,,,,1,,,,,,,1,1,,1,1,,,,1,,,,,,1,,,,1,,,,,1,1,1,,,1,,,,,,,,,,,,,,,,,,,,,,,,,
Steuben County Community Services,,115 Liberty Street,,Bath,NY,14810,,Steuben,607-664-2255,,,,http://,42.336074,-77.318972,MH,2017-02-27 11:25:37,1,,,,,,,1,,1,1,1,1,1,1,,1,,,1,,,1,,,,,1,,,,1,,,,1,1,1,1,1,1,1,,,,,1,,,,1,,,,1,1,,,,,,,,,,,,,,,,,,,,1,1,,,1,,,1,,,,,,,,1,1,,,,,,1,1,1,1,,,,1,,,,,,,,,,,,,,,,,,,,,,,,
UPMC Altoona,Behavioral Health Services,620 Howard Avenue,Suite 4-F,Altoona,PA,16601,,Blair,814-889-2141,,,800-540-4690,http://upmc.org,40.5214827,-78.3988004,MH,2018-02-06 09:50:06.283,1,1,,,,,,,,1,,1,1,1,1,1,1,1,1,1,1,1,,,1,,,,,,,,,,,1,1,1,1,1,1,1,1,,1,1,1,1,1,,1,1,,,1,,,,1,,,,,,1,,,,,,1,,,,,1,,,,,1,,1,,,,,1,,,1,1,,,,1,,1,1,1,1,,,1,,,,,,,,,,,,,,,,,,,,,,,,,
Bath VA Medical Center,Behavioral Health Service,76 Veterans Avenue,,Bath,NY,14810,0810,Steuben,607-664-4000,,607-664-4300,,http://www.visn2.va.gov/,42.3434235,-77.3461277,MH,2018-03-07 17:16:17.88,1,,,,,,,,,1,1,1,1,1,1,1,1,,,1,1,,1,,,1,,1,,1,,,,,,1,,,,1,1,,,,,,,,,1,,,,,,,,,,,1,,,,,,,,,,,,,,,1,1,1,,,1,1,1,1,1,1,,1,1,1,1,1,1,,,1,1,,1,1,1,,,,,1,,,,,,,,,,,,,,,,,,,,,,,
Beacon Light Behavioral Health Sys,Elk/Cameron County Office,Servedea Drive,,Ridgway,PA,15853,,Elk,814-389-1100,,814-817-1400,,http://www.beacon-light.org,41.403724,-78.700201,MH,2018-03-30 14:08:18.755,1,,,,,,1,,,1,1,,1,,1,,,,,,,1,,,,,,1,,,,,,,,1,1,1,1,1,,1,1,1,1,1,1,,,,,,,,,,,,1,,,,,,1,,1,,1,,1,,1,1,,,,,1,,,,,,,,,,,,,,,,,,,,1,1,1,,,,,,,,,,,,,,,,,,,,,,,,,,,,
Dickinson Center Inc,,43 Servidea Drive,,Ridgway,PA,15853,,Elk,814-776-2145,,,,http://www.dickinsoncenter.org,41.403807,-78.702794,MH,2017-02-27 11:25:37,1,,,,,,1,,,1,1,1,1,1,1,,1,,,1,1,,1,,,,1,1,,,,,,,,1,1,1,1,1,1,1,1,1,,1,1,1,1,1,,1,1,,1,,,,,,,,,1,1,,1,1,1,,1,,1,,,,1,,1,1,,,1,,,,,,,1,,1,1,,,,1,1,1,1,1,1,,1,,,,,,,,,,,,,,,,,,,,,,,,,
PA Treatment and Healing (PATH),Scranton,2400 Stafford Avenue,,Scranton,PA,18505,,Lackawanna,570-344-5960,,,,http://www.pathtochange.org,41.3778738,-75.6756186,MH,2018-02-22 16:33:46.114,1,,,,,,,,1,1,1,1,1,,1,1,1,1,,,,1,,,,,1,1,,,,,,,,1,1,1,1,1,,1,1,,,,,,,,,,,,,,,,1,,,,,1,,,1,1,,,1,,1,,,,,,,1,,1,1,,,,,,,,,,,,,,,1,1,1,1,,,1,1,,,,,,,,,,,,,,,,,,,,,,,,
James E Van Zandt VAMC,DuBois Outpatient Clinic,5690 Shaffer Road,,Du Bois,PA,15801,,Clearfield,814-375-6817,,,,http://www.altoona.va/gov,41.1233245,-78.7288205,MH,2018-03-07 17:17:28.878,1,,,,,,,,,1,1,,1,,,,1,,,1,1,,1,,,,,1,,1,,,,,,,,,,,,,,,,,,,,,,,,,,,,,,,1,,,,,,,,,,,,,,,,,1,,,1,,,,,1,,,,,1,,,,,1,,,1,1,1,,,,,,,,,,,,,,,,,,,,,,,,,,,,
Home Nursing Agency Behav Hlth,Childrens Community Health Center,400 Lakemont Boulevard,Suite 100,Altoona,PA,16602,,Blair,814-946-0261,,,800-445-6262,http://www.homenursingagency.com,40.4698774,-78.395141,MH,2018-03-30 14:07:43.787,1,,,,,,,1,,1,1,1,1,1,1,1,1,1,,1,1,1,,,,,1,1,,,,,,,,1,1,,1,1,,,,,,,1,,,,,,,,1,,,,,,,,,,,,1,,,,1,,,,,,1,,,,,,1,,,,,,,,1,1,,,,,,1,1,,,,,1,,,,,,,,,,,,,,,,,,,,,,,,,
Saint Lukes Hospital Gnaden Campus,,211 North 12th Street,,Lehighton,PA,18235,,Carbon,610-377-7142,,484-629-5091,,http://blmtn.org,40.8328094,-75.7261231,MH,2018-08-21 16:33:39.202,1,1,,,,,,,,1,,1,,,,,,1,1,1,,1,,,1,,,,,,,,,,,1,1,1,1,1,1,1,1,1,,1,1,1,1,1,1,,,,,,,,,,,,,,1,,,,1,1,,,,,,,,,,,1,,1,,,1,,1,1,,1,1,,,,1,,,1,1,1,,,1,,,,,,,,,,,,,,,,,,,,,,,,,
Scranton Counseling Center,,326 Adams Avenue,,Scranton,PA,18503,,Lackawanna,570-348-6100 x3200,,570-348-6100 x3264,,http://www.scrantonscc.org,41.408956,-75.660263,MH,2017-02-27 11:25:37,1,,,,,,,1,,1,1,1,1,1,1,,1,,,1,,1,,,,,1,1,,,,,,,,1,1,1,,1,,1,1,1,,1,1,,,,1,1,1,1,1,1,,,1,,,,,1,,,,1,1,,,,,,1,1,1,,1,1,1,,1,,1,1,,,,1,,1,,,,1,,1,1,1,1,,,1,,,,,,,,,,,,,,,,,,,,,,,,,
ReDCo Group,Lehighton,777 Blakeslee Boulevard Drive East,,Lehighton,PA,18235,,Carbon,610-377-8525,,,610-377-8548,http://www.redcogrp.com,40.8192004,-75.7251975,MH,2017-12-08 15:21:29.793,1,,,,,,1,,,1,1,1,1,1,1,1,1,,,1,1,,1,,,,,1,,,,,,,,1,1,1,1,1,,1,,,,,1,,,,,,,,1,,,,,,,,,1,,,1,,,,,,,,,,,,1,1,,,,,,,,,,,,1,,,,,,1,1,1,1,,1,,,,,,,,,,,,,,,,,,,,,,,,,,
Friendship House,,1509 Maple Street,,Scranton,PA,18505,,Lackawanna,570-342-8305,Intakes,570-344-1115,,http://www.friendshiphousepa.org,41.385325,-75.651151,MH,2017-02-27 11:25:37,1,,,,,,1,,,1,1,1,1,,1,,1,1,,1,1,1,,,,,,1,,,,,,,,1,1,,1,1,1,1,1,1,1,1,1,1,1,,1,,,,1,1,,,,,,,,,,,,1,,,,,,,,,1,,,1,,,1,,,,,,,,1,,,,1,,,1,1,,,,,1,,,,,,,,,,1,,,,,,,,,,,,,,,
PA Treatment and Healing,,335 North 4th Street,3rd Ward Professional Building,Lehighton,PA,18235,,Carbon,610-377-8870,,,,http://pathtochange.org,40.8376756,-75.7142803,MH,2018-03-01 12:39:50.929,1,,,,,1,,,,1,,1,1,,1,,1,,,,,1,,,,,1,1,,,,,,,,,,,1,,,,1,,,,,,,,,,1,1,,,,,,,,,,,,,,,,,,,,,,,1,,,1,,,,,,,,,,,1,,,,,,,1,1,1,1,,,1,,,,,,,,,,,,,,,,,,,,,,,,,
Community Guidance Center,,490 Jeffers Street,,Du Bois,PA,15801,2438,Clearfield,814-371-1100,,,888-686-1991,http://www.thecgc.com,41.121305,-78.751839,MH,2018-05-08 11:24:01.614,1,,,,,,,1,,1,1,1,1,1,1,,1,1,,1,1,,1,,,,,1,,,,,,,,1,1,1,1,1,,,,,,,1,,1,,,,1,1,,,,,1,,,,,1,,,,,1,,,,,,,1,1,1,1,,1,,1,1,1,,,,1,1,1,1,,,,,1,1,1,1,1,,,,,,,,,,,,,,,,,,,,,,,,,,,,
Moses Taylor Hospital,Senior Mental Health,700 Quincy Avenue,,Scranton,PA,18510,,Lackawanna,570-770-6395,,,,http://,41.411074,-75.650908,MH,2017-02-27 11:25:37,1,1,,,,,,,,,,1,,,,,,1,1,1,,1,,,1,,,,,,,,,,,1,1,1,,1,,,,,,,,,,,,1,,,1,,,,,,,,,,1,,,,,1,,,,,,,,,,,,,,,,,,,,,1,,,,,1,,,,1,1,,1,,,,,,,,,,,,,,,,,,,,,,,,,,
Behavioral Health Associates Partial,Hospitilization Prog for Children,325 Alum Street,,Lehighton,PA,18235,,Carbon,610-379-1266,,,,http://www.bhaservices.com,40.829349,-75.712365,MH,2017-02-27 11:25:37,1,,,,,1,,,,1,1,1,1,,1,,,,,1,,1,,,,,1,,,,,,,,,1,1,1,,1,1,,,,,,,,,,,,,,,,,,,,,,,,,,,1,,,,,,,,,,,,,,,1,,,,,,,,,,,,,,,1,,,,,,1,,,,,,,,,,,,,,,,,,,,,,,,,
Geisinger Community Medical Center,Behavioral Health,1800 Mulberry Street,,Scranton,PA,18510,,Lackawanna,570-703-8000 x8735,,570-703-8731,,http://www.geisinger.org,41.400385,-75.645845,MH,2017-02-27 11:25:37,1,1,,,,,,,,1,1,1,1,,1,,1,1,1,1,,1,,,1,,,,,,,,,,,1,1,1,1,1,,1,1,1,1,1,1,,,,,,,,1,,,,,,,,,,1,,,,1,,,,,,,,,1,,,,,1,,1,,,1,1,,,,,,,1,,,1,1,1,,,1,,,,,,,,,,,,,,,,,,,,,,,,,
Psychological Services Center,Marywood University,2300 Adams Avenue,The McGowan Building,Scranton,PA,18509,,Lackawanna,570-348-6269,,570-348-6292 x4777,,http://www.marywood.edu/psu,41.433425,-75.637236,MH,2017-02-27 11:25:37,1,,,,,,1,,,1,1,1,1,,1,,1,,,,,1,,,,,,1,,,,,,,,1,,,,,,,,,,,,,,,,,1,1,,1,,,,,,,,,,,,,,,,,,1,,,,,,1,,,1,,,,,,,,,1,,,,,,1,1,1,1,,,1,,,1,,,,,,,,,,,,,,,,,,,,,,
Penn Highlands Du Bois,Behavioral Health Unit,100 Hospital Avenue,,Du Bois,PA,15801,,Clearfield,814-375-6348,,814-375-6337,,http://www.phhealthcare.org,41.11492,-78.775151,MH,2017-02-27 11:25:37,1,1,,,,,,,,1,1,1,1,,1,,,1,,1,,1,,,1,,,1,,,,,,,,1,1,1,1,1,1,1,,,,,1,,,,,1,,,1,,,,,,,,,,,,,,,,,,,,,,,,,,1,,1,,,1,,1,1,,1,,,,,,,1,1,1,1,,,1,,,,,,,,,,,,,,,,,,,,,,,,,
Schuyler County Community Services,,106 South Perry Street,Suite 4,Watkins Glen,NY,14891,,Schuyler,607-535-8282,,,,http://,42.376347,-76.865218,MH,2017-02-27 11:25:37,1,,,,,,,1,,1,1,1,1,1,1,1,1,1,,1,,,1,,,,,1,,,,,1,,,1,1,1,1,1,1,1,,,,,,,,,1,1,1,1,1,,,,1,,,,,1,1,,1,1,1,,,,1,,,1,1,,1,1,,,1,,,,,,,,1,1,,,,1,,1,1,1,1,,,,,,,,,,,,,,,,,,,,,,,,,,,,
Schuyler County Community Services,Schuyler County Mental Health,Mill Creek Center,"106 South Perry Street, Suite 4",Watkins Glen,NY,14891,,Schuyler,607-535-8282,,,,http://,42.3764428,-76.8646538,MH,2018-07-10 13:08:45.509,1,,,,,,,1,,1,1,1,1,,1,,1,,,1,,,1,,,,,1,,,,,1,,,1,1,1,1,1,1,1,,,,,,,,,1,1,1,1,1,,,,1,,,,,,,,,1,1,,,,,,,1,1,,,1,,,1,,,,,,,,1,1,,,,1,,1,1,1,1,,,,,,,,,,,,,,,,,,,,,,,,,,,,
Schuyler County MH Servs,Schuyler Cnty MH Servs/C Y SCM,Mill Creek Center,"106 South Perry Street, Suite 4",Watkins Glen,NY,14891,,Schuyler,607-535-8282,,,,http://,42.3764428,-76.8646538,MH,2018-03-30 14:06:14.957,1,,,,,,,1,,1,1,1,1,,1,,1,1,,1,,,1,,,,,1,,,,,1,,,1,1,1,1,1,1,1,,,,,,,,,1,1,1,1,1,,,,1,,,,,,,,,1,1,,,,,,,1,1,,,1,,,1,,,,,,,,1,1,,,,1,,1,1,1,1,,,,,,,,,,,,,,,,,,,,,,,,,,,,
Wernersville State Hospital,,160 Main Street,,Wernersville,PA,19565,,Berks,610-670-4100,,,,http://www.dhs.state.pa.us/foradults/statehospitals/wernersvillestatehospital/,40.328809,-76.105036,MH,2017-02-27 11:25:37,1,1,,,,,,,,1,1,1,1,1,,,1,1,,1,,,1,,1,,,,,,1,,,,,1,1,1,1,1,,1,,,,1,,,,,1,,,1,,,,,1,1,1,,,,1,1,1,,1,,1,1,,1,,,,1,1,,1,1,1,,1,,,1,,1,1,,,,,1,1,,1,1,1,,,,,,,,,,,,,,,,,,,,,,,,,,,,
Steuben County Community Service,,7454 Seneca Road North,,Hornell,NY,14843,,Steuben,607-324-2483,,,,http://,42.36301,-77.666146,MH,2017-02-27 11:25:37,1,,,,,,,1,,1,1,1,1,1,1,,1,,,1,,,1,,,,,1,,,,1,,,,1,1,1,1,1,1,1,,,,1,1,,,,1,,,,1,,,,,,,,,,,,,,,,,,,,,1,1,,,1,,,1,,,,,,,,1,1,,,,,,1,1,1,1,,,,1,,,,,,,,,,,,,,,,,,,,,,,,
Lebanon VAMC,Berks VA Outpatient Clinic,2762 Century Boulevard,Suite 120,Reading,PA,19610,,Berks,610-208-4717,Intakes,800-409-8771,717-272-6621,http://www.lebanon.va.gov,40.3572338,-75.9889649,MH,2018-03-07 17:17:24.653,1,,,,,,,,,1,1,1,1,,1,1,1,,,1,1,,1,,,,,1,,1,,,,,,1,,1,,1,1,,,,,,,,,1,,1,,,1,1,,,1,,1,,,,,,1,,1,,1,,,,,1,1,1,,1,1,,1,1,1,1,1,1,1,,1,1,,1,,1,,,1,1,1,,,,,1,,,,,,,,,,,,,,,,,,,,,,,
KidsPeace Berks Campus,Acute Partial,704 Hay Road,,Temple,PA,19560,,Berks,610-929-4670,Intakes,610-929-4670 x7830,610-929-4670 x7843,http://www.kidspeace.org,40.4032513,-75.9220995,MH,2018-06-12 13:50:32.059,1,,,,,1,,,,1,,1,1,1,1,,1,1,,1,,1,,,,,1,,,,,,,,,1,1,,1,1,,1,1,1,1,1,1,,,,1,,1,,,,,,,,,,,,,,,,,,,,,,,,1,,,,,1,1,,,,,,,,,1,,,,,,1,,,,,,1,,,,,,,,,,,,,,,,,,,,,,,,,
Project Transition,,2913 Windmill Road,Suites 4 and 5,Reading,PA,19608,,Berks,610-678-8787,,215-997-9959,,http://www.projecttransition.com,40.318221,-76.008222,MH,2017-02-27 11:25:37,1,,,,,1,,,,1,1,1,1,1,1,1,,1,,1,,,1,,,,1,,,,,,,,,1,1,1,,1,,,,,,,,,,,1,,,,,,,,1,1,1,,,1,,1,1,,1,,1,1,,1,,1,1,,1,,1,1,,1,,,,,1,1,1,,1,1,,1,1,,1,1,,,,,,,,,,,,,,,,,,,,,,,,,,,,,
Carbon Learning and Achievement Sch,,480 Delaware Avenue,,Palmerton,PA,18071,,Carbon,610-769-4111 x1254,,,610-769-4111 x1264,http://www.cliu.org,40.803339,-75.604804,MH,2018-07-25 10:13:31.832,1,,,,,1,,,,1,1,1,1,,1,,1,,,1,,1,,,,,1,1,,,,,,,,1,1,,1,1,,1,1,1,1,1,1,,,,,,,,1,,,,,,,,,,,,1,1,,,,,,,,,1,,,,,1,1,,,,,,,,,,,,,,,1,1,,,,,1,,,,,,,,,,,,,,,,,,,,,,,,,
WellSpan Philhaven,,354 North Reading Road,,Ephrata,PA,17522,,Lancaster,717-738-1125,Intakes,800-459-7497,800-932-0359,http://www.philhaven.org,40.1932882,-76.1755258,MH,2017-08-15 16:31:18.293,1,,,,,,1,,,1,1,1,1,1,1,,1,1,,1,1,1,,,,,,1,,,,,,,,1,1,1,1,1,,1,1,,,,1,,,,,,,,1,,,,,,,,,,,,,,,,,,,,,,,,,,,,,,,,,,,,,,,,,,,1,1,1,1,,,1,,,,,,,,,,,,,,,,,,,,,,,,,
Reading Hospital,Center for Mental Health,560 Van Reed Road,Suites 301 and 308,Reading,PA,19610,,Berks,484-628-4947,,484-628-8070,,http://readinghealth.org,40.340516,-75.960283,MH,2017-02-27 11:25:37,1,,,,,,1,,,1,1,1,1,1,,,1,,,1,,1,,,,,,1,,,,,,,,1,1,1,,1,,,,,,,,,,,,,,,,,,,,,,,,,,,,,,,,,,,,,,,,,,,,,,,,,,,,,,,,,,1,1,1,1,,,1,,,,,,,,,,,,,,,,,,,,,,,,,
Wellspan Ephrata Community Hosp,Behavioral Health Services,169 Martin Avenue,P.O. Box 1002,Ephrata,PA,17522,,Lancaster,717-738-6400,,,,http://ephratahospital.org,40.1874241,-76.18254,MH,2018-05-30 09:37:30.483,1,1,,,,,,,,1,1,1,1,,,,,1,,1,,1,,,1,,,,,,,,,,,1,1,1,1,1,1,,,,,1,,,,1,1,1,,,1,,,,,,,,,,,,,,1,,,,,,,,,,1,,1,,1,1,,1,,1,1,1,1,1,,,,1,,,1,1,1,,,,,,,,,,,,,,,,,,,,,,,,,,,,
Cattaraugus County Community Services,Foundations for Change PROS Program,203 Laurens Street,,Olean,NY,14760,,Cattaraugus,716-373-8080 x5310,,716-373-8080,,http://www.cattco.org/community-services,42.0792489,-78.4316287,MH,2018-06-25 11:30:02.616,1,,,,,1,,,,1,,1,1,1,,1,1,,,1,,,1,,,,1,1,,,,,1,,,1,1,1,1,1,,1,,,,,1,,,1,,,,,1,,,,1,,,,,1,1,,1,,1,,1,,1,,,,,,1,1,1,,1,,1,,,1,1,1,1,1,1,,,1,1,,1,1,1,,,,,,,,,,,,,,,,,,,,,,,,,,,,
Family Guidance Center,,1235 Penn Avenue,Suite 205,Reading,PA,19610,2100,Berks,610-374-4963,,610-374-4963 x1,,http://www.familyguidancecenter.com,40.334036,-75.965065,MH,2017-02-27 11:25:37,1,,,,,,1,,,1,1,1,1,1,1,1,1,,,1,1,,1,,,,,1,,,,,,,,1,1,1,1,1,,1,1,,,,,1,,,,,1,,1,1,,,,,,,,,,,1,,1,,1,,,,,,,,,,,,,,,,,,,,,,,,,,,1,1,1,1,,,,,,,,,,,,,,,,,,,,,,,,,,,,
CONCERN Professional Services,Wyomissing,1120-C Hobart Avenue,,Reading,PA,19610,,Berks,610-371-8035,,,610-944-0445,http://concern4kids.org,40.3348104,-75.9630609,MH,2018-03-26 11:10:40.179,1,,,,,,1,,,1,1,1,1,,1,,1,1,,1,,,1,,,,,1,,,,,,,,1,1,1,1,1,1,1,1,1,,,1,,,,,,,,,1,,,,,,,,,,,,,,,,,,,,,,,,,,,,,,,,,,,,,,,,,,1,1,1,1,,,,,,,,,,,,,,,,,,,,,,,,,,,,
VA Western New York Healthcare System,VA Outpatient Clinic,465 North Union Street,,Olean,NY,14760,,Cattaraugus,716-834-9200,,716-373-7709,,http://www.va.gov,42.0846081,-78.4302961,MH,2018-03-07 17:16:15.893,1,,,,,,,,,1,1,1,1,,1,1,1,,,1,1,,1,,,,,1,,1,,,,,,1,,,,1,1,,,,,,,,,1,1,1,,,1,,,,,,1,,,,,,,,,,,,,,,,1,1,,1,1,1,1,1,1,1,1,1,1,,1,1,1,1,,1,1,,1,1,1,,,,,1,,,,,,,,,,,,,,,,,,,,,,,
Childrens Home of York/Bridges,,77 Shoehouse Road,,York,PA,17406,,York,717-718-1890,,,717-755-1033 x1226,http://www.choyork.org,39.9971171,-76.6343334,MH,2018-01-26 09:53:36.006,1,,,,,1,,,,1,1,1,1,,1,,1,1,,1,,1,,,,,1,,,,,,,,,1,1,,,1,,,,,,,,,,,,,,,,,,,,,,,,,,,1,1,,,,,,,,,,,,,,1,,,,,,,,,,,,,,,,1,1,,,,,,,,,,,,,,,,,,,,,,,,,,,,,,
Girls Center Psychiatric,Residential Treatment Facility,77 Shoe House Road,Building E,York,PA,17406,,York,717-755-1033 x1302,,717-755-1033 x1314,,http://www.choyork.org/,39.997117,-76.634333,MH,2017-02-27 11:25:37,1,,1,,,,,,,1,1,1,1,1,,,1,1,,1,,1,,,,1,,,,,,,,,,,1,,1,1,,1,,,,,,,,,,,,,,1,,,,,,,,,,,1,,,,1,,,,,,,,,,,,,,,,,,,,,,,,,,,1,,,,,,,,,,,,,,,,,,,,,,,,,,,,,,,
Wellspan Philhaven,Meadowlands,3550 Concord Road,,York,PA,17402,,York,717-851-6340,,,,http://www.wellspan.org,39.9899855,-76.6567028,MH,2018-07-25 10:15:47.438,1,,,,,,1,,,1,1,1,1,1,1,,1,1,,1,1,1,,,,,,1,,,,,,,,1,1,1,1,1,1,1,1,,,,1,,,,1,,,,1,1,,,,,,,,,,,,,,,,,,,,,,1,,,1,,1,,,,,,,,,,,,,,,1,1,1,1,,,1,,,,,,,,,,,,,,,,,,,,,,,,,
Olean General Hospital,Behavioral Health,515 Main Street,,Olean,NY,14760,,Cattaraugus,716-373-2600 x7322,,716-375-6296,,http://www.ogh.org,42.090486,-78.427804,MH,2017-02-27 11:25:37,1,1,,,,,,,,1,,1,1,1,,,,1,,1,,1,,,1,,,,,,,,,,,1,1,1,1,1,1,1,,1,,,,,,1,1,1,,,1,,,,,,,,,,,,,,1,,,,,,,,,,,,,,,,,,,1,,,1,1,,,,,,,1,1,1,1,,1,,,,,,,,,,,,,,,,,,,,,,,,,
Childrens Home of Reading,,1010 Centre Avenue,,Reading,PA,19601,,Berks,610-478-8266,,610-478-8266 x433,,http://www.childrenshomeofrdg.org/,40.351173,-75.933628,MH,2017-02-27 11:25:37,1,,1,,,,,,,1,1,1,1,1,1,,1,1,,1,,1,,,,1,1,1,,,,,,,,1,1,,,1,,,1,1,1,1,1,1,1,,,,,,,,,,,,,,,,,,,1,,,,,,,,,1,,,,,1,1,,,,,,,,,1,,,1,,,1,,,,,,1,,,,,,,,,,,,,,,,,,,,,,,,,
New Directions Treatment Services,,20-22 North 6th Avenue,,Reading,PA,19611,,Berks,610-478-0646,Intakes,610-478-0646 x21,610-478-0646 x35,http://www.ndts.org,40.3364147,-75.9497809,MH,2017-02-27 11:25:37,1,,,,,,1,,,1,1,1,1,,1,,1,,,1,,1,,,,,,1,,,,,,,,1,1,1,,1,1,,,,,,1,,,1,,,,,,1,,,,,,,,,,,,,1,,,,,,,,,,,,,,,,,,,,1,,1,,,,,1,,,1,1,1,,,1,,,,,,,,,,,,,,,,,,,,,,,,,
CONCERN,,24 North Franklin Street,,Fleetwood,PA,19522,,Berks,610-944-0445 x416,,610-944-0445 x400,,http://www.concern4kids.org,40.4547765,-75.8190254,MH,2018-07-25 10:13:47.341,1,,,,,,1,,,1,1,1,1,,,,1,,,1,,,1,,,,,1,,,,,,,,1,1,1,,1,1,,,1,,,1,,,,,,,,,,,,,,,,,,,,,,,,1,,1,,,,,,,,,,,,,,,,,,,,,,,,,1,1,1,1,,,1,,,,,,,,,,,,,,,,,,,,,,,,,
Berkshire Psychiatric,,1800 North 12th Street,,Reading,PA,19601,,Berks,610-208-8860,,,,http://www.bershirepsychiatric.com,40.3624107,-75.9137757,MH,2018-08-21 16:31:36.417,1,,,,,,1,,,1,1,1,1,1,1,1,1,1,,1,,1,,,,,,1,,,,,,,,,1,1,,1,1,1,1,,,,1,,,,,1,,,,,,,,,,,,,,,,,,,,,,,,,,1,,1,1,,1,,1,,,,1,1,1,1,,,,1,,1,1,1,1,,1,,,,,,,,,,,,,,,,,,,,,,,,,,
Reading Hospital,Center for Mental Health,420 South 5th Avenue,Building K,Reading,PA,19611,,Berks,484-628-8070,,,,http://readinghealth.org,40.3296481,-75.9483624,MH,2018-09-05 11:07:22.69,1,,,,,1,,,,1,1,1,,,,,,,,1,,1,,,,,1,1,,,,,,,,1,1,1,1,1,,1,,,,,1,,,,,,,,,,,,,,,,,,,,,,,,,,,,,,,,,,,,,,,,,,,,1,,,,,,,,1,1,1,,,1,,,,,,,,,,,,,,,,,,,,,,,,,
TW Ponessa and Associates Csl Services,,160 Roosevelt Avenue,,York,PA,17401,3378,York,717-845-2425,,800-437-5405,,http://www.twponessa.com,39.9616133,-76.7395576,MH,2018-06-12 13:49:12.371,1,,,,,,1,,,1,1,1,1,,1,,1,,,1,,1,,,,,,1,,,,,,,,1,1,1,1,1,1,1,,,,1,1,,,,,,,,1,,,,1,,,,,,,,,,,,,,,,,,,,,,,,,,,,,,,,,,,,,,,1,1,1,1,,1,,,,,,,,,,,,,,,,,,,,,,,,,,
Catholic Charities,York Counseling Office,253 East Market Street,,York,PA,17403,,York,717-845-2696,,,,http://www.cchbg.org/get-help/counseling-services/,39.964439,-76.722373,MH,2017-02-27 11:25:37,1,,,,,,1,,,1,1,,1,,,,,,,1,,,1,,,,,1,,,,,,,,1,1,,,,,,,,,,1,,,,,,1,1,,,,,,,,,,,,,,,,,,,,,,,,,,,,,,,,,,,,,1,,,,,,,1,1,1,1,,,1,,,,,,,,,,,,,,,,,,,,,,,,,
Cattaraugus Rehabilitation Center Inc,Prospect Avenue Residence,1439 Buffalo Street,,Olean,NY,14760,,Cattaraugus,716-375-4730 x168,,716-375-4747,,http://www.rehabcenter.org,42.086513,-78.447974,MH,2017-02-27 11:25:37,1,,,1,,,,,,,,,1,,1,,,1,,1,,,1,,,1,,,,,,,,,,1,1,1,,,,,,,,,,,,,,,,,,,,,,,,,,,,,,,1,,,,1,,,,1,1,,,,,,1,,,,,,1,,,,,,,,,1,1,1,,,1,,,,,,,,,,,,,,,,,,,,,,,,,
Cattaraugus Rehabilitation Center Inc,Moss Residence,1439 Buffalo Street,,Olean,NY,14760,,Cattaraugus,716-375-4761,,716-375-4747,,http://www.rehabcenter.org,42.086513,-78.447974,MH,2017-02-27 11:25:37,1,,,1,,,,,,,,,1,,1,,,1,,,,1,,,,1,,,,,,,,,,1,1,1,,,,,,,,,,,,,,,,,,,,,,,,,,,,,,,1,,,,,,,,1,,,,1,,,1,1,,,,,1,,,,,,,,,1,1,1,,,1,,,,,,,,,,,,,,,,,,,,,,,,,
Pressley Ridge,,141 East Market Street,,York,PA,17401,,York,717-845-6624,,717-845-6624 x0,,http://www.pressleyridge.org,39.96377,-76.724663,MH,2017-02-27 11:25:37,1,,,,,,,1,,1,1,1,1,,,,1,,,1,1,1,,,,,,1,,,,,,,,1,1,,,1,,,,,,,1,,,,1,,,,1,,,,,,,,,,,,,,,,,,,,,,,,,,,,,,,,,,,,,,,,,,,1,1,1,1,,,,,,,,,,,,,,,,,,,,,,,,,,,,
Cattaraugus Rehabilitation Center Inc,North Union Street Ext Comm Res,1439 Buffalo Street,,Olean,NY,14760,,Cattaraugus,716-375-4730 x168,,716-375-4747,,http://www.rehabcenter.org,42.0864745,-78.4482845,MH,2018-05-30 09:25:25.099,1,,1,,,,,,,1,,1,1,,1,,1,1,,,,1,,,,1,,,,,,,,,,1,1,,,,,,,,,,,,,,1,,,,,,,,,,,,,,,,1,1,,,,,,,,,1,,,,1,,1,1,1,,,,,,,,,,,,,1,,,,,,1,,,,,,,,,,,,,,,,,,,,,,,,,
Commonwealth Clinical Group Inc,,1 East Market Street,Suite 104,York,PA,17401,,York,717-747-3158,,844-331-3551,,http://,39.9629716,-76.7275307,MH,2017-02-27 11:25:37,1,,,,,,1,,,1,1,1,1,,,,1,,,1,,,1,,,,,1,,,,,,,,1,1,,1,1,1,1,1,1,,1,1,,,1,,,,,,1,,,,1,1,,,1,1,,1,1,1,,1,,1,,,,,,,1,,,,,,,,,,,,,,,,,,1,1,1,1,,1,,,,,,,,,,,,,,,,,,,,,,,,,,
Lebanon VAMC,York VA Outpatient Clinic,2251 Eastern Boulevard,,York,PA,17402,,York,717-840-2730,Intakes,800-409-8771,717-272-6621,http://www.lebanon.va.gov,39.9726014,-76.6830044,MH,2018-03-07 17:17:28.079,1,,,,,,,,,1,1,1,1,1,1,1,1,,,1,1,,1,,,,,1,,1,,,,,,1,,1,,1,1,,,,,,,,,1,,1,,,1,,,,1,,1,,,,,,,,1,,1,,,,,,1,1,1,1,1,,1,1,1,1,1,1,1,,1,1,,1,,,,,1,1,1,,,,,,,,,,,,,,,,,,,,,,,,,,,,
Cattaraugus County Community Servs,Olean Counseling Center,1 Leo Moss Drive,Suite 4308,Olean,NY,14760,,Cattaraugus,716-373-8040,,716-701-3335,,http://www.cattco.org/community-services,42.08635,-78.4500609,MH,2018-03-30 14:05:44.664,1,,,,,,1,,,1,,1,1,1,1,1,1,,,1,,1,,,,,,1,,,,,1,,,1,1,1,1,1,1,,1,1,,1,1,,,1,1,,1,,1,,,,,,,,,,,,,,,,,,,,,1,1,,,1,,,,,,,,,1,,1,1,,,,1,,1,1,1,1,1,,,,,,,,,,,,,,,,,,,,,,,,,,,
Familicare Counseling Center,,501 Washington Street,Suite 700,Reading,PA,19601,,Berks,610-898-0770,,,,http://familicare.com,40.336981,-75.92783,MH,2017-02-27 11:25:37,1,,,,,,1,,,1,1,1,1,,1,,1,,,1,,1,,,,,,1,,,,,,,,1,1,,,,,,,,,,1,,,,,,,,,1,,,,,,,,,1,,1,1,1,,1,,1,,,,,,,,,,,,,,,,,,,,,,,,,1,1,1,1,,,,,,,,,,,,,,,,,,,,,,,,,,,,
Child and Family Support Services,,4 South 4th Street,,Reading,PA,19602,,Berks,610-376-8558,,,,http://www.cfss-pa.com,40.3351112,-75.9300387,MH,2018-03-01 12:56:16.075,1,,,,,,1,,,1,1,1,1,1,1,,,,,1,1,,1,,,,,1,,,,,,,,1,1,1,1,1,,1,,,,,1,,,,,,,,,1,,,1,1,,,,,1,,,1,1,,,,1,,,,,,,1,1,,1,,,,,,,,,,,,,,,1,1,1,1,,1,,,,,,,,,1,,,,,,,,,,,,,,,,,
Progressions Behavioral Health Inc,,144 North 6th Street,,Reading,PA,19601,,Berks,610-375-7454,,,,http://www.pbhsi.com,40.338045,-75.926164,MH,2017-08-25 10:23:52.873,1,,,,,,1,,,1,1,1,1,,1,,1,,,1,,,1,,,,,1,,,,,,,,,1,,1,,,,,,,,1,,,,,,,,,1,,,,,,,,,1,,1,1,1,,1,,,,,,,,,,,,1,,,,,,,,1,1,,,,,,1,1,1,1,,1,,,,,,,,,,,,,,,,,,,,,,,,,,
Our Lady of Lourdes Memorial Hosp,,169 Riverside Drive,,Binghamton,NY,13905,,Broome,607-798-5111,,607-584-4465,,http://www.lourdes.com,42.0910926,-75.9361219,MH,2018-03-30 13:53:50.151,1,,,,,,1,,,1,1,1,1,1,,1,1,,,1,,1,,,,,,1,,,,,,,,1,1,1,1,1,,1,1,1,,,1,,1,,,,1,1,,,,,,,,,,,,,,,,,,,,,,,,,,,,,,,,,,,,,1,,,,,,,1,1,1,1,,,,,,,,,,,,,,,,,,,,,,,,,,,,
Haven Behavioral Hospital of,Eastern PA,145 North 6th Street,3rd Floor,Reading,PA,19601,,Berks,610-406-4340,,610-406-4346,,http://,40.3380137,-75.9252939,MH,2018-02-06 09:52:42.231,1,1,,,,,,,,1,,1,,,,,,1,,1,,1,,,1,,1,,,,,,,,,1,1,1,1,1,1,1,,,,,1,,,,1,,,,1,1,,,,,,,,,1,,,,1,,,,,,,,,,,,,,,,,,,1,1,,1,1,,,,1,,,1,1,1,,1,,,,,,,,,,,,,,,,,,,,,,,,,,
Berks Counseling Center,,645 Penn Street,Suite 2,Reading,PA,19601,,Berks,610-373-4281,,,,http://www.berkscc.org/,40.335559,-75.924456,MH,2017-02-27 11:25:37,1,,,,,,1,,,1,1,1,1,1,,1,1,,,1,1,1,,,,,,1,,,,,,,,1,1,1,1,1,1,1,,,,1,1,1,1,,1,1,1,,,1,,,1,,1,,,1,,,1,1,1,,1,,1,,1,1,1,1,1,1,1,,1,1,1,1,,1,1,1,1,,,1,,1,,1,1,1,1,,,,,,,,,,,,,,,,,,,,,,,,,,,,
Beacon Light Behavioral Health Sys,Childrens Ctr for Trt and Education,945 South Avenue,,Custer City,PA,16725,,McKean,814-817-1372,,,800-345-1780,http://www.beacon-light.org,41.9076263,-78.6513883,MH,2018-03-30 14:07:54.595,1,,,,,,,,1,1,1,1,1,,1,,1,1,,1,,1,,,,,,1,,,,,,,,1,1,,1,1,,1,1,1,,,1,,,,1,,,,,,,,,,,,,,,,1,1,,,,,,,,,,,,,,1,1,,,,,,,,,,,,1,,,1,1,1,1,,,,,,,,,,,,,,,,,,,,,,,,,,,,
Pennsylvania Counseling Services,Berks County Childrens Services,938 Penn Street,,Reading,PA,19602,,Berks,610-670-9924,,,,http://pacounseling.com,40.3348699,-75.9187649,MH,2018-05-14 12:08:36.978,1,,,,,,1,,,,1,,,,1,,,,,,,,1,,,,,1,,,,,,,,,1,1,,1,,,,,,,,,,,,,,,,,,,,,,,,,,,,,,,,,,,,,,,,,,,,,,,,,,,,,,,,,,1,1,,,,,,,,,,,,,,,,,,,,,,,,,,,,,,
Threshold Rehabilitation Services Inc,,1000 Lancaster Avenue,,Reading,PA,19607,1610,Berks,610-777-7691 x102,Intakes,610-777-7691,,http://www.trsinc.org,40.314167,-75.942977,MH,2017-02-27 11:25:37,1,,,,,1,,,,,,1,,,,,,1,,1,,1,,,,,1,,,,,,,,,1,1,,1,1,,1,,,,1,1,,1,,,,,,,,,,,,,,,,,,,,1,,,,,,,,,,1,,,,,,,,,,,,,,,,,,1,,1,1,1,,,1,,,,,,,,,,,,,,,,,,,,,,,,,
Edgar Square,,1101 Edgar Street,Suite A,York,PA,17403,,York,717-851-1500,,,,http://www.wellspan.org,39.951624,-76.710007,MH,2017-02-27 11:25:37,1,,,,,,1,,,1,,1,1,1,1,1,1,,,1,,,1,,,,,1,,,,,,,,1,1,1,1,1,1,1,1,1,1,1,1,,,,,1,,,1,1,,,1,,,,,,,,1,,,,,,,,,1,1,,,1,,,,,,,,,,,,,,,,,,,1,1,1,,,1,,,,,,,,,,,,,,,,,,,,,,,,,
United Health Services Hospitals Inc,Adult Psych Outpt Clinic Trt Prog,33 Mitchell Avenue,,Binghamton,NY,13903,,Broome,607-762-2340,,,,http://www.uhs.net,42.0868499,-75.9137515,MH,2018-03-30 13:53:51.224,1,,,,,,1,,,1,1,1,1,1,,1,1,,,1,,1,,,,,,1,,,,,,,,,1,1,1,1,1,,,,,,,,,,,,,,1,,,,1,,,,,,,,,,,,,,,,,,,1,,1,,,,,,,,1,,,1,,,,,1,,,1,1,1,,,1,,,,,,,,,,,,,,,,,,,,,,,,,
Family and Childrens Society Inc,Family Mental Health Clinic,257 Main Street,,Binghamton,NY,13905,,Broome,607-729-6206,,607-729-6206 x000,,http://www.familycs.org/,42.107223,-75.938513,MH,2017-02-27 11:25:37,1,,,,,,1,,,1,1,1,1,1,,,1,,,1,,1,,,,,,1,,,,,,,,1,1,1,1,1,1,1,1,,,1,1,,,,,,1,1,1,,,,,,,,,,,,,,,,,,,,,,,,,,,,1,,,,,1,1,,1,1,,,,1,,1,1,1,1,,,1,,,,,,,,,,,,,,,,,,,,,,,,,
United Health Services Hospitals Inc,Psychiatric Inpatient Unit,10-42 Mitchell Avenue,"Krembs 3, Memorial 5 and Krembs 5",Binghamton,NY,13903,,Broome,607-762-2200,,607-762-2458,,http://www.uhs.net,42.0881397,-75.9145967,MH,2017-02-27 11:25:37,1,1,,,,,,,,1,,1,1,,,,,1,1,1,,1,,,1,,,,,,,,,,,1,1,1,1,1,1,1,,,,1,,,,1,,,,,1,1,,,1,,,,,,,,,,1,,,,,,,,,,,,,,1,,,,,1,,1,1,1,,,,1,,,1,1,1,,,1,,,,,,,,,,,,,,,,,,,,,,,,,
United Health Services Hospitals Inc,CPEP,10-42 Mitchell Avenue,,Binghamton,NY,13903,,Broome,607-762-2458,,607-762-2340,,http://www.uhs.net/,42.0881397,-75.9145967,MH,2018-03-06 16:18:14.681,1,1,,,,,,,,,,,,,,,,,,1,,1,,,,,,1,,,,,,,,1,1,1,1,1,1,1,,,,,,,,1,1,1,,,1,,,,,,,,,,,,,,,,,,,,,,,,,1,,,,,,,,,,,1,,,,,1,,1,1,1,1,,,1,,,,,,,,,,,,,,,,,,,,,,,,,
Momentum Services LLC,,50 Parkwood Drive,,Chambersburg,PA,17201,,Franklin,717-262-2183,,,,http://www.mymomentumservices.com,39.939957,-77.635288,MH,2017-02-27 11:25:37,1,,,,,,1,,,1,1,,1,,1,,1,,,1,,1,,,,,,1,,,,,,,,1,1,1,1,1,1,1,1,1,1,1,,,,1,1,,,,,,,,,,,,,,,,1,1,,,1,,,,,,,,,1,,,1,,,,,,,,1,1,,,,,,1,1,1,1,,,,,,,,,,,,,,,,,,,,,,,,,,,,
York Hospital,Behavioral Health Services,1001 South George Street,3rd Floor Main Building,York,PA,17403,,York,717-851-2304,,717-751-1500,,http://www.wellspan.org,39.9460359,-76.7188384,MH,2017-02-27 11:25:37,1,1,,,,,,,,1,,1,1,,1,1,,,1,1,,1,,,1,,,,,,,,,,,1,1,1,1,1,,1,1,1,,,,,,,1,,,,1,,,,1,,,,,,1,,,,1,1,,,,,,,1,1,,,,,,,,1,,1,1,,1,,,,,1,,,1,1,1,,,1,,,,,,,,,,,,,,,,,,,,,,,,,
WellSpan Philhaven,,2501 Oregon Pike,Suite 105,Lancaster,PA,17601,2322,Lancaster,717-735-1954 x1,,800-459-7497,,http://www.philhaven.org,40.0953542,-76.2724409,MH,2018-09-18 11:23:49.813,1,,,,,,1,,,1,1,1,1,1,1,,1,,,1,,,1,,,,,1,,,,,,,,1,1,1,1,1,,,,,,,,,,,,,,,,,,,,,,,,,,,,,,,,,,,,,,,,,1,,1,,,,,,,,,1,,,,1,,1,1,1,1,,,1,,,,,,,,,,,,,,,,,,,,,,,,,
Community Trt and Recovery Center,,114 Clinton Street,,Binghamton,NY,13905,2212,Broome,607-797-0680,,,,http://www.omh.ny.gov/omhweb/facilities/bipc/facility.htm,42.1056689,-75.9226239,MH,2017-02-27 11:25:37,1,,,,,,,1,,1,,1,1,1,,1,1,1,,1,,1,,,,,,1,,,1,,,,,1,1,1,1,1,,1,,,,,,,,,,1,,1,1,,,,1,,,,,,,,1,,1,,1,,,,,,1,1,1,1,1,,1,,1,1,,1,1,1,1,1,1,,,1,1,,1,1,1,,,,,,,,,,,,,,,,,,,,,,,,,,,,
Chambersburg Hospital,Behavioral Health Unit,112 North 7th Street,,Chambersburg,PA,17201,,Franklin,717-267-7771,Intakes,866-918-2555,717-264-2555,http://www.summithealth.org/summit-locations/summit-behavioral-health-inpatient,39.934922,-77.64744,MH,2017-02-27 11:25:37,1,1,,,,,,,,,1,1,,,,,,1,1,1,1,1,,,1,,,,,,,,,,,1,1,1,1,1,1,,,,,,,,,,1,1,,,1,1,,,,,,,,,,,,,,,,,,,,,,,,,,1,,,,,,1,1,,1,1,,,,1,,,1,1,1,,,1,,,,,,,,,,,,,,,,,,,,,,,,,
Chambesburg Hospital,Summit Behavioral Health,176 South Coldbrook Avenue,Unit 2,Chambersburg,PA,17201,2714,Franklin,717-267-7480,,,,http://www.summithealth.org,39.931482,-77.645407,MH,2017-12-18 09:01:19.261,1,,,,,,1,,,1,1,1,1,1,1,1,1,,1,1,,1,,,,,,1,,,,,,,,1,1,1,,1,1,,1,,,,,,1,,1,,1,1,1,1,,,,,,,,,1,,,1,1,,1,,1,,,,,1,,1,1,,1,,1,,,1,1,,1,1,,,,1,,1,1,1,1,,,,,,,,,,,,,,,,,,,,,,,,,,,,
Paradise Counseling,Catholic Charities,6156 West Canal Road,,Abbottstown,PA,17301,,Adams,717-259-9537,,,,http://www.cchbg.org/get-help/counseling-services/,39.8954381,-76.9743728,MH,2017-02-27 11:25:37,1,,,,,,1,,,1,1,,1,,,,1,,,1,,1,,,,,,1,,,,,,,,1,1,,,,,,,,,,1,,,,,,1,1,,,,,,,,,,,,,,,,,,,,,,,,,,,,,,,,,,,,,1,,,,,,,1,1,1,1,,,1,,,,,,,,,,,,,,,,,,,,,,,,,
Syracuse VAMC,Binghamton CBOC,203 Court Street,,Binghamton,NY,13901,,Broome,607-772-9100,,315-425-3463,,http://vaww.visn2.va.gov,42.1010061,-75.904062,MH,2018-03-07 17:16:30.375,1,,,,,,,,,1,1,1,1,1,1,1,1,,,1,1,,1,,,,,1,,1,,,,,,,,,,,1,,,,,,,,,1,,,,,,,,,,,1,,,,,,,,,,,,,,,,,,,,1,1,,1,,1,1,1,1,,1,1,,,,1,1,,1,1,1,,,,,1,,,,,,,,,,,,,,,,,,,,,,,
Franklin Family Services,,131 East McKinley Street,,Chambersburg,PA,17201,,Franklin,717-267-1515,Intakes,717-732-2917,,http://www.ffspa.com,39.9284,-77.662494,MH,2017-02-27 11:25:37,1,,,,,,1,,,1,1,,1,1,1,,1,,,1,1,1,,,,,,1,,,,,,,,1,1,1,,1,,,,1,,,,,,,,,,,,,,,,,,,,,,,,,,,,,,,,,,,,,,,1,,,,,,,,1,,,,,,,1,1,1,,,,,,,,,,,,,,,,,,,,,,,,,,,,,
Wellspan Philhaven,Day Hospital,780 Eden Road,,Lancaster,PA,17601,,Lancaster,717-735-7770,,800-932-0359,,http://www.philhaven.org,40.0691947,-76.2894849,MH,2018-01-24 10:21:39.314,1,,,,,1,,,,1,1,1,1,,1,,,1,,1,,1,,,,,1,1,,,,,,,,1,1,1,,1,,1,,,,,,,,,,,,,,1,,,,,,,,,,,,1,,,,,,,,,,,,,,1,1,,,,,,,,1,1,,,,,,1,1,,,,,,,,,,,,,,,,,,,,,,,,,,,,,,
NHS,NHS Northeastern PA,30-32 North Main Street,,Carbondale,PA,18407,,Lackawanna,570-282-1732 x226,,570-282-1732,,http://www.nhsonline.org,41.573039,-75.501809,MH,2018-01-23 13:54:42.875,1,,,,,,,1,,1,1,1,1,1,1,1,1,,,1,1,1,,,,,,1,,,,,,,,1,1,1,1,1,1,1,1,1,1,1,1,1,1,,1,,,1,1,,,,,,,,,,,,,1,1,,,,1,,,1,1,,1,1,,,1,,1,,,,,1,,,,,,,,1,1,1,1,,,,,,,,,,,,,,,,,,,,,,,,,,,,
Guidance Center,,110 Campus Drive,,Bradford,PA,16701,,McKean,814-362-6535,,,,http://www.guidancecenter.net/,41.9452234,-78.6714023,MH,2018-09-05 11:06:40.102,1,,,,,,1,,,1,1,1,1,1,1,,1,,,1,1,,1,,,,,1,,,,,,,,1,1,1,1,1,1,1,1,1,,1,1,,,1,1,1,1,,1,,,,,,,,,1,,,1,1,,,,,,,,1,1,,1,1,,,,,,,,,1,,1,1,,,,1,,1,1,1,1,,,,,,,,,,,,,,,,,,,,,,,,,,,,
Lancaster Counseling,Catholic Charities,925 North Duke Street,,Lancaster,PA,17602,,Lancaster,717-299-3659,,,,http://www.cchbg.org/get-help/counseling-services/,40.051981,-76.305967,MH,2017-02-27 11:25:37,1,,,,,,1,,,1,1,,1,,,,1,,,1,,,1,,,,,1,,,,,,,,1,1,,,,,,,,,,,,,,,,1,1,,1,,,,,,,,,,,1,,,,,,,,,,,,,,,,,,,,,,,,1,,,,,,,1,1,1,1,,,1,,,,,,,,,,,,,,,,,,,,,,,,,
Pressley Ridge,,630 Janet Avenue,,Lancaster,PA,17601,4541,Lancaster,717-397-5241,,,,http://www.pressleyridge.org/outpatient,40.0557629,-76.2969416,MH,2017-02-27 11:25:37,1,,,,,,1,,,1,1,1,1,1,1,,1,1,,,,,1,,,,,1,,,,,,,,1,1,,1,1,,1,1,,,,,,,,,,,,,,,,,,,,,,,,1,1,1,,,,,,,,,,,,,,,,,,,,,,1,,,,,,,1,1,1,,,,1,,,,,,,,,,,,,,,,,,,,,,,,,
Bradford Regional Medical Center,Behavioral Health Services,116 Interstate Parkway,,Bradford,PA,16701,,McKean,800-446-2583,,,,http://www.brmc.com,41.96122,-78.659452,MH,2017-02-27 11:25:37,1,1,,,,,,,,1,1,1,1,,,1,,,,1,,1,,,1,,1,,,,,,1,,,1,1,1,,1,,,,,,,,,,,1,,,,,,,,1,,,,,,,,,,1,,,,,,,,1,,,,,,,,,,,1,,,1,,,,,,,,1,1,1,,,,,,,,,,,,,,,,,,,,,,,,,,,,
UPMC Pinnacle/Lancaster,Behavioral Health Unit,250 College Avenue,,Lancaster,PA,17603,,Lancaster,717-291-8211,,717-291-7921,,http://www.lancastermedicalcenters.com/medical-services/behavioral-health-mental-health,40.0408858,-76.32055,MH,2018-01-26 10:23:25.232,1,1,,,,,,,,1,,1,,,,1,,1,,1,,1,,,1,,,,,,,,,,,1,1,1,1,1,1,1,1,1,,,1,,,1,1,1,1,1,1,1,,,1,1,1,,1,1,1,1,1,,1,1,1,,,,,,1,,,,1,,1,,,1,,1,1,,1,1,,,,1,,,1,1,1,,,,,,,,,,,,,,,1,,,,,,,,,,,,,
Lancaster General Hospital,,555 North Duke Street,,Lancaster,PA,17602,,Lancaster,717-544-5511,Intakes,717-544-5832,717-544-7056,http://,40.047404,-76.305399,MH,2017-02-27 11:25:37,1,1,,,,,,,,1,1,1,1,,,1,1,1,,1,,1,,,1,,,,,,,,,,,1,1,1,1,1,1,1,,1,,,,,,1,,1,,,1,,,,,,,,,,,,,,,,,,,,,,,,1,,1,,1,,,,,1,,,1,,,,,1,,,1,1,1,,,1,,,,,,,,,,,,,,,,,,,,,,,,,
Behavioral Healthcare Corporation,,822 Marietta Avenue,,Lancaster,PA,17603,,Lancaster,717-399-8288,,,,http://,40.03977,-76.321785,MH,2017-02-27 11:25:37,1,,,,,,1,,,1,1,1,1,1,1,1,1,1,,1,,,1,,,,,1,,,,,,,,1,1,1,,1,,1,,,,,1,1,1,,,,,,,1,,,,,,,,,,,,,,,,,,,,,,1,,,1,,1,,1,,,,,1,1,1,,,,1,,1,1,1,1,,1,,,,,,,,,,,,,,,,,,,,,,,,,,
TW Ponessa and Associates,Counseling Services,410 North Prince Street,,Lancaster,PA,17603,,Lancaster,717-560-7917,,800-437-5405,,http://www.twponessa.com,40.0443872,-76.3092258,MH,2018-05-14 12:09:08.636,1,,,,,,1,,,1,1,1,1,,1,,1,,,1,,1,,,,,,1,,,,,,,,1,1,1,1,1,1,,1,1,,1,1,,,,,,,,1,1,,,1,,,,,,,,,,,,,,,,,,,,,,,,,,,,,,,,,,,,,,,1,1,1,1,,1,,,,,,,,,,,,,,,,,,,,,,,,,,
Family and Childrens Service of Ithaca,,127 West State Street,,Ithaca,NY,14850,,Tompkins,607-273-7494,,,,http://www.fcsith.org/,42.4392912,-76.5001107,MH,2017-02-27 11:25:37,1,,,,,,1,,,1,1,1,1,1,1,,1,1,,1,,1,,,,,,1,,,,,,,,1,1,1,1,1,1,1,,,,1,1,,,,1,,1,,1,,,,,,,,,,1,,,,,,,,,,,,1,,,,,1,1,,,,,,,,1,,,,,,,1,1,1,1,,,,,,,,,,,,,,,,,,,,,,,,,,,,
Tompkins County MH Servs,,201 East Green Street,,Ithaca,NY,14850,,Tompkins,607-274-6200,,,,http://www.tompkinscountyny.gov,42.4384797,-76.496566,MH,2018-03-30 13:54:54.309,1,,,,,,1,,,1,1,1,1,1,1,1,1,1,,1,,1,,,,,,1,,,,,1,,,1,1,1,1,1,1,1,,,,1,1,,,,1,1,1,,1,1,,,1,,,,,1,,,1,1,1,,,,,,,1,1,1,,1,1,1,1,,1,,,1,1,1,1,1,,,,1,,1,1,1,1,,,,,,,,,,,,,,,,,,,,,,,,,,,,
Community Services Group,MAPS Behavioral Health Services,790 New Holland Avenue,,Lancaster,PA,17602,2137,Lancaster,877-907-7970,,,,http://www.csgonline.org,40.0502449,-76.289876,MH,2017-08-15 16:31:35.026,1,,,,,,1,,,1,1,1,1,1,1,,1,,,1,1,,1,,,,1,1,,,,,,,,1,1,1,1,1,1,1,1,1,1,1,1,1,1,1,,,,,1,1,,,,,,,,,,,1,,,,,,1,,,1,1,,,,,,1,,,,,,,1,1,,1,,1,,,1,1,1,1,,1,,,,,,,,,,,,,,,,,,,,,,,,,,
Greater Binghamton Health Center,Child/Adolescent Behavioral Health,425 Robinson Street,,Binghamton,NY,13904,,Broome,607-724-1391,,607-773-4520,,http://www.omh.ny.gov,42.1059479,-75.8681756,MH,2017-02-27 11:25:37,1,,,,,,1,,,1,,1,1,1,1,1,1,,,1,1,1,,,,,,1,,,1,,,,,,1,1,1,,,1,,,,,,,,,,1,1,,,,,,1,,,,,,,,1,1,,,,,,,,,,,,1,,,1,,1,,,,,,1,1,,,,,,1,,,,,,,,,,,,,,,,,,,,,,,,,,,,,,,
Greater Binghamton Health Center,Psychiatric Inpatient Unit,425 Robinson Street,,Binghamton,NY,13904,,Broome,607-724-1391,,607-773-4264,,http://omh.ny.gov,42.1059479,-75.8681756,MH,2017-02-27 11:25:37,1,1,,,,,,,,1,1,1,1,1,,1,1,1,,1,1,1,,,1,1,1,1,,,1,,,,,1,1,1,1,1,,1,,,1,,,,,,1,1,1,1,,,,,,,,,,,1,,,,1,,,,,,,,1,,1,,1,1,1,1,1,,1,1,1,1,1,1,1,,,1,1,1,1,1,1,,,,,,,,,,,,,,,,,,,,,,,,,,,,
Commonwealth Clinical Group,,41 East Orange Street,,Lancaster,PA,17602,,Lancaster,717-393-3900,,844-331-3551 x101,,http://www.ccgtherapy.com,40.0398333,-76.3046222,MH,2018-01-26 14:10:49.213,1,,,,,,1,,,1,1,1,1,1,1,1,1,,,1,1,1,,,,,,1,,,,,,,,1,1,,1,1,,,1,1,,1,1,,,1,,,1,,,1,,,,,,,,1,1,,,1,1,,1,,,,,,,,,1,,1,1,,,,,,,1,,1,,,,,,1,1,1,1,,,,,,,,,,,,,,,,,,,,,,,,,,,,
Nuestra Clinica of SACA,,545 Pershing Avenue,,Lancaster,PA,17602,,Lancaster,717-293-4150,,,,http://sacapa.org,40.0356432,-76.2960152,MH,2018-09-18 11:22:11.306,1,,,,,,1,,,1,,1,1,1,1,1,,1,,1,,,1,,,,,1,,,,,,,,1,1,1,,1,,1,,1,,,1,1,1,,1,1,1,1,,1,,,1,,,,,,1,,,,1,,1,,,,,,1,1,,1,,,1,,,,,,,,1,,,,,1,,1,1,1,1,,,1,,,,,,,,,,,,,,,,,,,,,,,,,
Lebanon VAMC,Lancaster VA Outpatient Clinic,1861 Charter Lane,Suite 121,Lancaster,PA,17601,,Lancaster,717-290-6900,Intakes,800-409-8771,717-272-6621,http://www.lebanon.va.gov,40.0519936,-76.2514875,MH,2018-03-07 17:17:26.389,1,,,,,,,,,1,1,1,1,,1,1,1,,,1,1,,1,,,,,1,,1,,,,,,1,,1,,1,1,,,,,,,,,1,,1,,,1,1,,,1,,1,,,,,,,,,,1,,,,,,1,1,,1,1,,1,1,1,1,1,1,1,,1,1,1,1,,1,1,,1,1,1,,,,,,,,,,,,,,,,,,,,,,,,,,,,
Cayuga Medical Center at Ithaca,Behavioral Services Unit,101 Dates Drive,,Ithaca,NY,14850,,Tompkins,607-274-4011,,607-274-4304,,http://www.cayugamed.org,42.4690356,-76.5374431,MH,2018-05-02 11:31:59.279,1,1,,,,,,,,1,,1,1,1,1,,,1,,1,,1,,,1,,,,,,,,,,,1,1,1,1,1,1,,,,,,,,,,1,,,,1,,,,,,,,,,,,,,1,,,,,,,,,,,,1,1,,,,1,,1,1,1,1,1,,,,1,,1,1,1,1,,,1,,,,,,,,,,,,,,,,,,,,,,,,,
Community Guidance Center,,200 Prushnok Drive,,Punxsutawney,PA,15767,,Jefferson,814-938-4444,Intakes,888-686-1991,724-465-5576,http://www.thecgc.com,40.946583,-78.9611692,MH,2017-02-27 11:25:37,1,,,,,,,1,,1,1,1,1,1,1,,1,1,,1,1,1,,,,,,1,,,,,,,,1,1,1,1,1,,1,,,,,1,,1,,,,1,1,,,,,,,,,,,1,,,,1,,,,,,,1,1,,,1,,,1,,1,1,,,,1,1,1,,,,,1,1,1,1,1,,,,,,,,,,,,,,,,,,,,,,,,,,,,
Teamcare Behavioral Health,,1808 Colonial Village Lane,Suite 103,Lancaster,PA,17601,,Lancaster,717-391-0172,,,717-525-9804,http://,40.047647,-76.248139,MH,2017-02-27 11:25:37,1,,,,,,1,,,1,1,1,1,1,1,,1,,,1,,,1,,,,,1,,,,,,,,1,1,1,1,1,1,1,1,1,1,1,1,1,1,1,,,,,1,1,,,1,1,1,,1,,1,1,1,1,1,,1,1,1,1,,,,,,,,,,,,,,,,,1,1,,,,,,1,1,1,1,,1,,,,,,,,,,,,,,,,,,,1,,,,,,,
TrueNorth Wellness Services,,44 South Franklin Street,,Gettysburg,PA,17325,2100,Adams,717-334-9111,,717-632-4900,,http://www.truenorthwellness.org,39.830115,-77.234682,MH,2017-02-27 11:25:37,1,,,,,,1,,,1,1,1,1,1,1,1,1,,,1,,,1,,,,,1,,,,,,,,1,1,1,,1,1,,1,1,1,,1,,,,1,,,,1,,,,1,,,,,,,,,,1,,,,,,,,,,,,,,,,,,,,,,1,,,,,,,1,1,1,1,,,,,,,,,1,,,,,,,,,,,,,1,,,,,,
Salisbury Behavioral Health,,1391 Mount Pocono Boulevard,,Mount Pocono,PA,18344,,Monroe,570-839-0642,,570-420-1900,,http://www.saisb.com,41.104916,-75.382005,MH,2017-02-27 11:25:37,1,,,1,,,,,,,,1,,,,,,1,,1,,,1,,,1,,,,,,,,,,1,1,1,,1,,1,,,,,1,,,,,,,,,1,,,1,,,,,,,,,,1,,,,,,,,,,,,,,,,,,,,,1,,,,1,,,,,1,1,1,,,,,,,,,,,,,,,,,,,,,,,,,,,,
KidsPeace Tobyhanna Outpatient Prg,Orchard Behavioral Health,100 Community Drive,Suite 208,Tobyhanna,PA,18466,,Monroe,570-243-8787,,,,http://www.kidspeace.org,41.148259,-75.372611,MH,2018-03-30 14:08:21.442,1,,,,,,1,,,1,1,1,1,1,1,,1,,,1,1,,1,,,,,1,,,,,,,,1,1,,1,1,,,,,,,,,,,1,1,,,,1,,,,,,,,,,,1,1,1,,1,,1,,,,,,,1,,,1,,,,,,,,1,1,,,,,,1,1,1,,,,1,,,,,,,,,,,,,,,,,,,,,,,,,
Merakey,Mount Pocono,1151 Pocono Boulevard,,Mount Pocono,PA,18344,,Monroe,570-839-3097 x202,,570-839-3097 x217,,http://www.nhsonline.org,41.1302122,-75.3622253,MH,2018-05-08 14:02:34.533,1,,,,,,1,,,1,1,1,1,1,1,1,1,1,,1,1,,1,,,,,1,,,,,,,,1,1,1,1,1,1,1,1,,,,1,,1,,,,1,1,1,1,,,,,,,,,,,,,,,,,,,,,1,1,1,1,,1,1,,1,,,,,1,,1,,,,,,1,1,1,1,,,,,,,,,,,,,,,,,,,,,,,,,,,,
TrueNorth Wellness Services,,625 Elm Avenue,,Hanover,PA,17331,,York,717-632-4900,,,,http://www.truenorthwellness.org,39.80915355,-76.99917384,MH,2017-08-15 16:22:21.712,1,,,,,,1,,,1,1,1,1,1,1,1,1,,,1,,,1,,,,,1,,,,,,,,1,1,1,,1,1,,1,1,1,,1,,,,1,,,,1,,,,1,,,,,,,,,,1,,,,,,,,,,,1,,,1,,,,,,,,1,,,,,,,1,1,1,1,,,1,,,,,,1,,,,1,,,,,,,,,,,,,,,
Syracuse VAMC,Tompkins/Cortland Outpatient Clinic,1451 Dryden Road,,Freeville,NY,13068,,Tompkins,607-347-4101,,,,http://va.gov,42.4723897,-76.3967907,MH,2018-03-07 17:16:33.462,1,,,,,,,,,1,1,1,1,1,1,1,1,,,1,1,1,,,,,,1,,1,,,,,,,,,,,,,,,,,,,,,1,,,,1,,,,1,1,1,1,1,1,1,1,1,,1,,1,1,,1,,,1,1,,1,1,,1,,1,1,,1,1,,1,,,,,1,1,,1,1,1,,,,,,,,,,,,,,,,,,,,,,,,,,,,
Devereux Foundation,BHRS Program,1547 Mill Creek Road,,Newfoundland,PA,18445,5239,Wayne,570-839-6140,,570-839-6158,,http://www.devereuxpocono.org/,41.290484,-75.330605,MH,2017-02-27 11:25:37,1,,,,,,1,,,1,1,,1,,1,,,,,,,,1,,,,,1,,,,,,,,1,1,,1,1,,1,,,,1,1,,,,,,,,,,,,,,,,,,,,,1,,,,,,,,,1,,,,,,1,,,,,,,,,1,,,,,,1,1,,,,,1,,,,,,,,,,,,,,,,,,,,,,,,,
Creative Health Services Inc,,321 North Furnace Street,Suite 40,Birdsboro,PA,19508,,Berks,610-326-9250 x1185,,610-326-9250,,http://www.creativehs.org,40.267411,-75.808024,MH,2017-02-27 11:25:37,1,,,,,,1,,,1,1,,1,,,,,,,,,,1,,,,,1,,,,,,,,1,1,1,1,1,,,1,,,1,1,,,,,,,,,1,,,,,,,,,,,,,,,,,,,,,,,,1,,1,1,,,,,,,,1,1,,,,,,1,1,1,1,,,1,,,,,,,,,,,,,,,,,,,,,,,,,
TrueNorth Wellness Services,,119 Lincoln Way West,,McConnellsburg,PA,17233,,Fulton,717-485-3264,Intakes,800-315-0951,717-632-4900,http://truenorthwellness.org,39.9327692,-78.0001137,MH,2017-02-27 11:25:37,1,,,,,,1,,,1,1,1,1,1,1,1,1,,,1,1,,1,,,,,1,,,,,,,,1,1,1,1,1,,1,1,,,,1,,,,1,1,1,,1,1,,,,,,,,,,,,,,,,,,,,,1,,1,1,,,1,,,,,,,,1,1,,,,,,1,1,1,1,,,1,,,,,,,,,,,,,,,,,,,,,,,,,
TrueNorth Wellness Services,,33 Frederick Street,,Hanover,PA,17331,,York,717-632-4900,,,,http://www.truenorthwellness.org,39.800156,-76.984022,MH,2017-02-27 11:25:37,1,,,,,,,1,,,,1,1,1,,,,,,1,,,1,,,,1,,,,,,,,,1,1,1,,1,1,,1,1,1,,1,,,,1,1,1,,1,,,,,,,,,,,,,,1,,,,,,,,,,1,,,,,,,,,,,1,1,1,,,,,,,1,1,1,,,1,,,,,,,,,,,,,,,,,,,,,,,,,
Wilkes Barre VAMC,,3110 Hamilton Boulevard,,Allentown,PA,18103,3630,Lehigh,610-776-4304,,610-776-4368,,http://,40.5830345,-75.5170244,MH,2018-03-07 17:17:20.378,1,,,,,,,,,1,1,1,1,,,,1,,,1,1,,1,,,,,1,,1,,,,,,,,,,,,,,,,,,,,,,1,,,,,,,1,1,1,,,,1,1,1,,1,1,1,1,,1,,,1,,,,,,1,,,,,,,1,1,,,,,,,,1,1,1,,,,,,,,,,,,,,,,,,,,,,,,,,,,
Pinebrook Family Answers,,402 North Fulton Street,,Allentown,PA,18102,,Lehigh,610-432-3919 x1177,,610-432-3919,,http://www.pbfalv.org,40.6030713,-75.4922316,MH,2017-02-27 11:25:37,1,,,,,,1,,,1,1,1,1,,1,,1,,,1,1,,1,,,,,1,,,,,,,,1,1,1,1,1,,1,1,1,1,1,1,1,1,1,,,,,,1,,,,,,,,,,,,,,,,,,,,,1,,1,1,,1,1,1,,1,,,,,,1,,1,1,,,1,1,1,1,1,,1,,,,,,,,,,,,,,,,,,,,,,,,,
Lehigh Valley Health Network,CCLVPG Adult and Ped Psychiatry,1259 South Cedar Crest Boulevard,Suite 230,Allentown,PA,18103,,Lehigh,610-402-5900,,,,http://www.lvhn.org,40.5645327,-75.5170249,MH,2018-03-30 14:07:42.783,1,,,,,,1,,,1,1,1,1,1,1,,1,,,1,1,,1,,,,,1,,,,,,,,1,,1,,1,1,,,,,,,,,,1,,,,1,1,,,,,,,,,,,,,,,,,,,,,,,,,1,,1,,,,,,,,1,,,,,1,,1,1,1,1,,,1,,,,,,,,,,,,,,,,,,,,,,,,,
Adolescent Transitions Partial Hosp,Lehig Valley Health Network,1255 South Cedar Crest Boulevard,Suite 1500,Allentown,PA,18103,,Lehigh,610-402-5930,,,,http://www.lvhn.org,40.565378,-75.5152045,MH,2018-07-10 13:12:42.767,1,,,,,1,,,,1,1,1,1,1,1,,1,,,1,,1,,,,,1,,,,,,,,,1,1,,1,1,1,,1,,,,,,,,,,,,1,,,,,,,,,,,,,,,,,,,,,,1,,,,,1,1,,,,,,,,1,1,,,,,,1,,,,,,1,,,,,,,,,,,,,,,,,,,,,,,,,
Nicholas H Noyes Memorial Hospital,Noyes Hospital Mental Health Service,9221 Robert Hart Drive,,Dansville,NY,14437,8931,Livingston,585-335-4316,,,,http://www.noyes-health.org,42.579555,-77.7128649,MH,2017-08-15 16:09:29.692,1,,,,,,1,,,1,1,1,1,1,1,1,1,,,1,,1,,,,,,1,,,,,,,,1,1,1,1,1,1,1,1,1,1,,1,1,1,1,1,1,1,,1,,,,1,,,,,,,,,,,,,,,,,,,,,,,,,,,,,1,1,,1,,,,,1,,1,1,1,1,1,,,,,,,,,,,,,,,,,,,,,,,,,,,
Penn Highlands Brookville,Behavioral Health Unit,100 Hospital Road,,Brookville,PA,15825,,Jefferson,814-849-2312,,814-849-1850,,http://www.phhealthcare.org,41.1571144,-79.0915845,MH,2017-02-27 11:25:37,1,1,,,,,,,,1,,1,1,,1,,1,1,,1,,1,,,1,,,1,,,,,,,,1,,1,,1,1,,,,,,1,,1,1,,1,,,1,,,,,,,,,,1,,,,,1,,,,,,,,,,1,1,1,1,1,,1,,1,1,,1,1,,,,,,,,,1,,,1,,,,,,,,,,,,,,,,,,,,,,,,,
Sacred Heart Hospital,Behavioral Health,421 West Chew Street,,Allentown,PA,18102,,Lehigh,610-776-4500,,610-776-4504,,http://www.shh.org,40.608221,-75.46848,MH,2017-02-27 11:25:37,1,1,,,,,,,,1,1,1,1,,1,1,1,1,1,1,,1,,,1,1,,,,,,,,,,1,1,1,1,1,,1,,,,1,1,,,1,1,1,,,1,1,,,,,,,,1,1,,,,1,1,,,,,,,1,,1,,1,,1,,1,1,,1,1,,1,1,,,,1,,,1,1,1,,,1,,,,,,,,,,,,,,,,,,,,,,,,,
KidsPeace,,801 East Green Street,,Allentown,PA,18109,,Lehigh,610-799-8910,,,,http://www.kidspeace.org,40.6199682,-75.4433232,MH,2017-02-27 11:25:37,1,,,,,,1,,,1,1,1,1,1,1,1,1,,,1,1,,1,,,,,1,,,,,,,,1,1,,1,1,,1,1,1,1,1,1,1,1,1,1,1,,,1,1,,,,1,,,,,,,1,,,,,,1,,,,,,,1,,,1,,,,,,,,1,1,,,,,,1,1,1,,,,1,,,,,,,,,,,,,,,,,,,,,,,,,
Hoffman Homes for Youth,,815 Orphanage Road,,Littlestown,PA,17340,,Adams,717-359-7148,,,,http://www.hoffmanhomes.com,39.7508229,-77.1799786,MH,2017-02-27 11:25:37,1,,1,,,,,,,1,,1,1,1,1,,1,1,,1,,1,,,,1,,,,,,,,,,1,1,,,1,,1,1,1,1,,1,,,,,,,,,,,,,1,,,,,,,1,1,,,1,,,,,,,,,,,1,1,,,,,,,,,,,,,,,1,,,,,,1,,,,,,,,,,,,,,,,,,,,,,,,,
Haven House,,1411 Union Boulevard,,Allentown,PA,18109,1505,Lehigh,610-433-6181 x112,,610-433-6181 x115,,http://Haven-House.com,40.625062,-75.434288,MH,2017-02-27 11:25:37,1,,,,,,,1,,1,,1,1,1,1,,1,1,,1,,,1,,,,1,1,,,,,,,,1,1,1,1,1,,,1,,,,1,,,,,1,,,,1,,,,,,,,,,,,,,,,,,,,,,,1,,1,1,1,1,,1,,,,1,,1,,,,,1,1,1,1,1,,,,,,,,,,,,,,,,,,,,,,,,,,,,
Alternatives Adult Partial Program,Lehigh Valley Health Network,2545 Schoenersville Road,,Bethlehem,PA,18017,,Northampton,484-884-5690,,,,http://www.lvhn.org,40.644389,-75.408955,MH,2017-02-27 11:25:37,1,,,,,1,,,,1,,1,1,1,,,,,,1,,1,,,,,1,,,,,,,,,1,1,1,,1,1,,,,,,,,,,,,,,1,,,,1,1,1,1,1,,1,1,1,,1,,1,1,1,1,,,1,,,,1,,1,,1,,,,,,,1,,,,,,,1,1,1,,,1,,,,,,,,,,,,,,,,,,,,,,,,,
Lehigh Valley Health Network,Mental Health Clinic Muhlenberg,2604 Schoenersville Road,,Bethlehem,PA,18017,,Northampton,610-691-8028 x233,,610-691-8028,,http://www.lvhn.org,40.645538,-75.405871,MH,2017-02-27 11:25:37,1,,,,,,1,,,1,1,1,1,1,,,1,,,1,,1,,,,,,1,,,,,,,,1,1,1,1,1,,1,,,,1,1,,,,,,,,1,1,,,,,,,,,1,,,,1,,,,,,,,1,1,1,,1,,1,,,1,,1,1,,1,1,,,,1,,,1,1,1,,,,,,,,,,,,,,,,,,,,,,,,,,,,
CONCERN Professional Services for,Children Youth and Families,90 South Commerce Way,Suite 300,Bethlehem,PA,18017,,Northampton,610-691-8401,,,,http://www.concern4kids.org/,40.6737956,-75.3814164,MH,2018-05-30 09:37:41.462,1,,,,,,1,,,1,1,1,1,,1,,1,1,,1,,,1,,,,,1,,,,,,,,1,1,1,1,1,1,1,1,1,,,1,,,,,,,,,1,,,,,,,,,,,,,,,,,,,,,,,,,,,,,,,,,,,,,,,,,,1,1,1,1,,,,,,,,,,,,,,,,,,,,,,,,,,,,
Robbins Bower Crisis Residence,,910 East Emmaus Avenue,,Allentown,PA,18103,,Lehigh,610-791-7878,,,,http://www.hhinc.org,40.58308,-75.432819,MH,2017-02-27 11:25:37,1,,,1,,,,,,1,1,1,1,,,,,,,1,1,,1,,,1,,,,,,,,,,1,1,,,1,,,,,,,1,,,,1,,,1,,1,,,1,,,,,,,,1,,1,,1,,,1,,,,,1,,,,,1,,,,1,,,1,1,,,,,,,1,1,1,,,,,,,,,,,,,,,,,,,,,,,,,,,,
Northwestern Human Services (NHS),Assertive Comm Trt Program (ACT),3864 Adler Place,Suite 100,Bethlehem,PA,18017,,Northampton,610-866-8331 x233,,610-866-8331,,http://www.nhsonline.org,40.6694644,-75.3815532,MH,2018-10-01 14:57:46.808,1,,,,,,,1,,1,1,,1,1,1,,1,,,1,,,1,,,,,1,,,,,,,,,1,,1,,,,,,,,1,,,,1,,,,,,,,1,,,,,,,,,,1,,,,,,1,1,1,,,,,,,,1,,,,,,,,1,1,,,1,,1,1,1,,,,,,,,,,,,,,,,,,,,,,,,,,,,
Community Services Group,Lehigh Valley Partial Hospitilization,54 South Commerce Way,Suite 170,Bethlehem,PA,18017,,Northampton,610-866-7600 x40022,,,877-907-7970 x50014,http://www.csgonline.org,40.673623,-75.378349,MH,2017-02-27 11:25:37,1,,,,,1,,,,,,1,1,1,1,,,,,1,,,1,,,,1,1,,,,,,,,1,1,,,1,,,,,,,,,,,,,,,,,,,,,,,,,,,,,,,,,,,,,,,,,,,1,,1,,,,,,,,,,,,,,1,1,1,,1,,,,,,,,,,,,,,,,,,,,,,,,,,
Saint Lukes University Health Network,Psychiatric Associates,1107 Eaton Avenue,,Bethlehem,PA,18018,,Lehigh,484-526-3012,,484-526-2400,,http://www.sluhn.org,40.6331731,-75.3975966,MH,2018-08-07 13:28:09.928,1,,,,,,1,,,1,1,1,1,,1,,1,1,,1,,1,,,,,1,1,,,,,,,,1,1,1,1,1,1,,,,,,,,,,,,,,1,,,,1,1,,,,,,,,,,,1,,,,,,,,,,1,1,1,,1,1,,,,,1,1,,,,1,,1,1,1,1,,,1,,,,,,,,,,,,,,,,,,,,,,,,,
Creative Health Services Inc,,5th and Montgomery Avenue,Suite 208,Boyertown,PA,19512,,Berks,610-369-7271,,610-326-9250,,http://www.creativehs.org,40.329643,-75.6244201,MH,2018-03-01 12:22:33.303,1,,,,,,1,,,1,1,,1,,,,1,,,,,,1,,,,,1,,,,,,,,1,1,1,1,1,1,1,1,,,,1,,,,,,1,,,1,,,,,,,,,,,,,,,,,,,,,,,,1,,1,1,,,,,,,,1,,,,,,,1,1,1,1,,,1,,,,,,,,,,,,,,,,,,,,,,,,,
Family Guidance Center,Boyertown Professional Center,5th and Montgomery Avenue,,Boyertown,PA,19512,1300,Berks,610-374-4963,,610-374-4963 x1,,http://www.familyguidaancecenter.com,40.329643,-75.6244201,MH,2018-03-26 09:57:24.698,1,,,,,,1,,,1,1,,1,,1,,1,,,,,,1,,,,,1,,,,,,,,1,1,1,1,1,,1,1,,,,,1,,,,,1,,,,,,,,,,,,,,,,,,,,,,,,,,,,,,,,,,,,,,,,,,,,,1,1,1,1,,,,,,,,,,,,,,,,,,,,,,,,,,,,
Creative Health Services Inc,Boyertown Professional Center,137 Montgomery Avenue,Suite 208,Boyertown,PA,19512,,Berks,610-369-7271,,610-326-9250,,http://www.creativehs.org,40.329678,-75.623564,MH,2017-02-27 11:25:37,1,,,,,,1,,,1,1,,1,,,,1,,,,,,1,,,,,1,,,,,,,,1,1,1,1,1,,,1,,,,1,,,,,,,,,1,,,,,,,,,,,,,,,,,,,,,,,,1,,1,1,,,,,,,,1,,,,,1,,1,1,1,1,,,1,,,,,,,,,,,,,,,,,,,,,,,,,
New Directions Treatment Services,,2456 Broadhead Road,,Bethlehem,PA,18020,,Northampton,484-821-2922,Intakes,484-821-2922 x100,484-821-2922 x101,http://www.ndts.org,40.678521,-75.364698,MH,2017-02-27 11:25:37,1,,,,,,1,,,1,1,,1,,1,1,1,,,1,,,1,,,,,1,,,,,,,,1,1,1,,1,,,,,,,1,,,,,,,,,1,,,1,,,,,,,,,,1,,,,,,,,,,,,1,,,,1,,,,,,,,,,,1,,,1,1,1,,,1,,,,,,,1,,,,,,,,,,,,,,,,,,
Cattaraugus County Community Services,Salamanca Counseling Center,117 1/2 Main Street,,Salamanca,NY,14779,,Cattaraugus,716-945-5211,Intakes,716-701-3335,716-373-8040,http://www.cattco.org/community-services,42.154164,-78.713604,MH,2017-02-27 11:25:37,1,,,,,,1,,,1,,1,1,1,1,1,1,,,1,,,1,,,,,1,,,,,1,,,1,1,1,1,1,1,,1,1,,1,1,,,1,1,,1,,1,,,,,,,,,,,,,,,,,,,,,1,1,,,1,,,,,,,,,1,,1,1,,,,1,,1,1,1,1,1,,,,,,,,,,,,,,,,,,,,,,,,,,,
Pinebrook Family Answers,,16 South Broadway,Suite 2,Wind Gap,PA,18091,,Northampton,610-863-8151,,,,http://www.pbfalv.org,40.8479057,-75.2922015,MH,2017-02-27 11:25:37,1,,,,,,1,,,1,1,1,1,,1,,1,,,1,1,,1,,,,,1,,,,,,,,1,1,1,1,1,,1,1,1,1,1,1,1,,,,,,,,1,,,,,,,,,,,,,,,,,,,,,,,,1,,,1,,,,,,1,,,1,,,,,,1,1,1,1,,,1,,,,,,,,,,,,,,,,,,,,,,,,,
KidsPeace Broadway Campus,,1620 Broadway,,Bethlehem,PA,18015,,Northampton,610-799-8600,,,,http://www.kidspeace.org,40.5977364,-75.4064867,MH,2017-08-15 16:24:44.09,1,,,,,,1,,,1,1,1,1,,1,,1,,,1,1,1,,,,,,1,,,,,,,,1,1,,1,1,,,,,,,,,,,1,,,,1,,,,,1,,,,,,,1,,,,1,,1,,,,,,,1,,,,,,,,,,,,1,,,,,,1,1,,,,,1,,,,,,,,,,,,,,,,,,,,,,,,,
TrueNorth Wellness Services,,73 East Forrest Avenue,,Shrewsbury,PA,17361,,York,717-235-0199,,717-632-4900,,http://www.truenorthwellness.org,39.770366,-76.676164,MH,2017-02-27 11:25:37,1,,,,,,1,,,1,1,,1,1,1,1,1,,,1,,,1,,,,,1,,,,,,,,1,1,1,,1,1,,1,1,1,,1,,,,1,,1,,1,,,,,,,,,,,,,,,,,,,,,,,,,,,,,,,,,,,,1,,,,,,,1,1,1,1,,,1,,,,,,,,,,,,,,,,,,,1,,,,,,
Northeast Treatment Centers,,44 East Broad Street,Suite 020,Bethlehem,PA,18018,,Lehigh,610-868-0435,,,,http://www.netcenters.org,40.621929,-75.377135,MH,2017-02-27 11:25:37,1,,,,,,1,,,1,1,1,1,,,1,,,,1,,,1,,,,,1,,,,,,,,1,1,,,1,,,,,,,1,,,,,,,,,,,,1,,,,,,,,,,,,,,,,,,,,,,,,,,,,,,,,1,,,,,,,1,1,1,1,,,1,,,,,,,,,,,,,,,,,,,,,,,,,
Creative Health Services Inc,,11 Robinson Street,,Pottstown,PA,19464,,Montgomery,610-326-9250 x1180,Intakes,610-326-9250,,http://www.creativehs.org/,40.257304,-75.665687,MH,2017-02-27 11:25:37,1,,,,,,1,,,1,1,1,1,1,1,1,1,,,1,,,1,,,,,1,,,,,,,,1,1,1,1,1,,,,,,,1,,,,,,,,,1,,,1,1,,,,,,,,,,,,,,,,1,1,,1,1,1,1,1,,,1,,1,1,,1,1,,,,1,1,1,1,1,1,,,1,,,,,,,,,,,,,,,,,,,,,,,,,
Bet El Counseling Services PC,,307 East 4th Street,,Bethlehem,PA,18015,,Northampton,610-849-2291,,,,http://www.betelcs.org,40.610897,-75.374173,MH,2017-02-27 11:25:37,1,,,,,,,1,,1,1,1,1,,1,,1,1,,1,,,1,,,,,1,,,,,,,,1,1,1,,,,1,1,,,,1,,,,,1,1,,,1,,,1,1,1,,1,1,1,1,1,1,1,1,1,1,1,1,,,,,,1,,,1,,,,,,,,1,1,,,,,,1,1,1,1,,,,,,,,,,,,,,,,,,,,,,,,,,,,
Resources for Human Development Inc,(RHD) Hope House,3606 Hecktown Road,,Bethlehem,PA,18020,,Northampton,610-882-2008,,610-882-2008 x0,,http://www.hopehouse-rhd.org,40.6704272,-75.3290331,MH,2018-09-18 11:22:19.454,1,,,1,,,,,,1,1,1,,,,,1,,,1,,,1,,,1,,,,,,,,,,,1,1,1,,,1,,,,,1,,,,,,,,,,,,,,,,,,,,1,,,,,,,,,,1,,,,,,1,1,,,,,,,,1,,,,,,,1,1,1,,,,,,,,,,,,,,,,,,,,,,,,,,,,
Redco Group Behav Health Servs for,Outpatient/FACT Stroudsburg,564 Main Street,2nd Floor,Stroudsburg,PA,18360,,Monroe,570-420-8070,,570-420-8070 x3012,,http://www.redcogrp.com,40.986198,-75.192524,MH,2017-02-27 11:25:37,1,,,,,,,,1,1,,1,1,,1,,1,,,1,1,,1,,,,,1,,,,,,,,1,1,1,1,,1,1,1,,,,1,,1,,,,,,1,,,,,,,,,1,,,1,,,,1,,1,,,,,1,1,1,,,1,1,,,,,,1,,1,,1,,,,1,1,1,1,,,,,,,,,,,,,,,,,,,,,,,,,,,,
Lehigh Valley Health Ntwk Pocono,Behavioral Health,206 East Brown Street,,East Stroudsburg,PA,18301,,Monroe,570-421-4000 x3394,,,,http://,40.9931408,-75.1753166,MH,2018-05-30 09:37:10.067,1,1,,,,,,,,1,,1,1,,1,1,,1,,1,,1,,,1,,,,,,,,,,,1,1,1,1,1,,1,,,,,,,,,1,1,,,1,,,,,,,,,,,,,,,,,,,,1,1,1,1,,,1,,,,1,1,,1,1,,1,1,,,,1,,,1,1,1,,,1,,,,,,,,,,,,,,,,,,,,,,,,,
Penn Foundation Inc,,500 Creekside Drive,Suite 507,Pottstown,PA,19464,,Montgomery,610-819-6000,,610-819-6000 x5924,,http://www.pennfoundation.org,40.245895,-75.605534,MH,2017-02-27 11:25:37,1,,,,,,1,,,1,1,1,1,1,1,1,1,,,1,,,1,,,,,1,,,,,,,,1,1,,,,,1,,,,,1,,1,,1,,,1,,,,,1,,,,,1,,,,,1,,,,,,1,,,,,,,,,,,,,,,,,,,,,,,,1,1,1,,,1,,,,,,,,,,,,,,,,,,,,,,,,,
Progressions,,1610 Medical Drive,Suite 310,Pottstown,PA,19464,,Montgomery,610-970-5000,,,,http://www.pbhsi.com,40.2402961,-75.6104906,MH,2017-08-18 10:26:55.646,1,,,,,,1,,,1,1,1,1,,1,1,1,,,1,,,1,,,,,1,,,,,,,,1,1,,,,,,,,,,,,,,,,1,,,,,,,,,,,,,,,,,,,,,,,,,,,,,,1,,,,,,,1,,,,,,,,1,1,1,1,,,,,,,,,,,,,,,,,,,,,,,,,,,,
MSVS Community Counseling Servs,,51 Market Street,,Bangor,PA,18013,,Northampton,610-588-9109,,,,http://www.ccsbangor.org,40.8670674,-75.2060281,MH,2018-03-30 14:07:45.952,1,,,,,,1,,,1,1,1,1,,1,,1,,,1,,,1,,,,,1,,,,,,,,1,1,1,,1,1,,1,,,,,,,,,,1,,,,,,,1,1,1,1,,1,1,1,,1,,1,,1,1,,,,,,1,,,1,,,,,,,,1,1,,,,,,1,1,1,1,,,,,,,,,,,,,,,,,,,,,,,,,,,,
Cattaraugus County Comm Servs,Machias Counseling Center,9824 Route 16,,Machias,NY,14101,,Cattaraugus,716-353-8241,Intakes,716-701-3335,716-373-8040,http://www.cattco.org/community-services,42.4300303,-78.4837078,MH,2018-03-30 14:05:15.833,1,,,,,,1,,,1,,1,1,1,1,1,1,,,1,,,1,,,,,1,,,,,1,,,1,1,1,1,1,1,,1,1,,1,1,,,1,1,,1,,1,,,,,,,,,,,,,,,,,,,,,1,1,,,1,,,,,,,,,1,,1,1,,,,1,,1,1,1,1,1,,,,,,,,,,,,,,,,,,,,,,,,,,,
Devereux Advanced Behavioral Hlth,Brandywine,160 Devereux Road,,Glenmoore,PA,19343,,Chester,800-935-6789,Intakes,800-935-6789 x2,484-595-6723,http://www.devereuxbeneto.org,40.084733,-75.759266,MH,2018-06-12 13:47:35.413,1,,1,,,,,,,1,1,1,1,1,1,1,1,1,,1,,1,,,,1,,,,,,,,,,1,1,,,1,,1,1,1,1,1,1,,,,,,,,,,,,1,1,,,,1,,,1,1,,,1,,,,,,1,,,,1,1,1,,,1,,,,1,1,1,,,,,,1,,,,,,1,,,,,,,,,,,,,,,,,,,,,,,,,
PATH,East Stroudsburg,149 Saw Mill Court,,East Stroudsburg,PA,18301,,Monroe,570-517-7153,,,,http://www.pathtochange.org,41.0359954,-75.1333302,MH,2017-02-27 11:25:37,1,,,,,,,,1,1,1,1,1,1,1,1,1,1,,,,1,,,,,1,1,,,,,,,,1,1,,1,1,,1,1,1,,,1,,,,1,,,,,,,,,,,,,,,,,,,,,,,,,1,1,,,1,,1,1,,,,,,,,,,,,1,,,1,1,1,1,,,1,,,,,,,,,,,,,,,,,,,,,,,,,
Community Counseling Services,,1555 Northampton Street,,Easton,PA,18043,,Northampton,610-252-2000,,610-588-9109,,http://www.ccsbangor.org,40.6899878,-75.2338099,MH,2017-02-27 11:25:37,1,,,,,,1,,,1,1,1,1,1,1,,1,,,1,,,1,,,,,1,,,,,,,,1,1,1,,1,1,1,1,,,,1,,,1,,,1,,,,,,,1,1,1,1,,1,1,1,,1,,1,,1,1,,,,,,1,,,1,,,,,,,,1,1,,,,,,1,1,1,1,,,,,,,,,,,,,,,,,,,,,,,,,,,,
Elmira Psychiatric Center,Wayne Finger Lakes Day Treatment,4120 Baldwin Road,,Rushville,NY,14544,,Yates,585-289-6292,Intakes,607-795-2244,585-554-6492,http://,42.777433,-77.227789,MH,2017-02-27 11:25:37,1,,,,,,,,1,1,,1,1,1,,,,,,1,1,1,,,,,,1,,,1,,,,,1,1,1,1,1,,1,,,1,1,1,,,,,,,,,,,,,,,,,,,,,1,,,,,,,,,,,,,,1,1,,,,,,,,,,,,,,,1,,,,,,,,,,,,,,,,,,,,,,,,,,,,,,,
Bedford/Somerset DBHS,Windber Clinic/Cornerstone,403 12th Street,,Windber,PA,15963,,Somerset,814-467-4397,,,814-443-4891,http://www.dbhs.co,40.236624,-78.834444,MH,2018-05-14 12:09:19.967,1,,,,,,1,,,1,1,,1,1,1,1,1,1,,1,,,1,,,,,1,,,1,,,,,1,1,1,1,1,1,,,,,,1,,,1,1,1,,,,,,,1,,,,,,,,1,1,1,,,,,,,1,1,,,1,1,,1,,,,,,,,1,1,,,,1,,1,1,1,1,,,,,,,,,,,,,,,,,,,,,,,,,,,,
Pinebrook Family Answers,,1101 Northampton Street,Suite 201,Easton,PA,18042,,Northampton,610-559-8151,,,,http://www.pbfalv.org,40.690841,-75.2247061,MH,2018-06-25 11:38:32.639,1,,,,,,1,,,1,1,1,1,,1,,1,1,,1,1,,1,,,,,1,,,,,,,,1,1,1,1,1,,1,1,1,1,1,1,1,1,1,,,,,,1,,,,,,,,,,,,,,,,,,,,,,,,1,,,1,,,,,,,,,1,,,,,,1,1,1,1,1,,1,,,,,,,,,,,,,,,,,,,,,,,,,
Community Guidance Center,,793 Old Route 119 Highway North,,Indiana,PA,15701,,,724-465-5576,,,888-686-1991,http://,40.6374003,-79.1399856,MH,2018-01-26 10:24:07.518,1,,,,,,,1,,1,1,1,1,1,1,1,1,,,1,1,,1,,,,1,1,,,,,,,,1,1,1,1,1,,1,1,1,1,1,1,1,1,,1,1,1,1,1,,,,1,,,,,,1,,1,1,1,,1,,1,1,,1,1,,,1,1,1,1,1,1,,,,,1,1,1,,,,,1,1,1,1,1,,,1,,,,,,,,,,,,,,,,,,,,,,,,,
Cortland Community Services Board,Horizon House,7 Clayton Avenue,,Cortland,NY,13045,,Cortland,607-758-6100,,,,http://,42.5980056,-76.1807551,MH,2018-03-07 15:04:04.373,1,,,,,1,,,,1,,1,1,1,1,1,1,1,,1,,1,,,,,1,,,,,,1,,,1,1,1,1,1,,1,,,,,1,,,,1,,1,1,1,,,,,,,,,,,,,,1,,,,,,,,,,,,1,1,,,,,,,,1,1,1,,,,1,,,1,1,1,,,,1,,,,,,,,,,,,,,,,,,,,,,,,
CareLink Community Support Servs,Marsh Creek,630 Milford Road,,Downingtown,PA,19335,,Chester,610-458-0685,,,,http://www.carelinkservices.org,40.0785286,-75.7220891,MH,2018-05-30 09:38:04.687,1,,,1,,,,,,,,,,,,,,,,,,,1,,,1,,,,,,,,,,1,,,,,,,,,,,1,,,,,,1,,,,,,,,,,,,,,,,1,,,,,,,,,,,,,,,1,,,,,,1,,,,,,,,,1,1,1,,,1,,,,,,,,,,,,,,,,,,,,,,,,,
Conemaugh Memorial Medical Center,Behavioral Medicine,1086 Franklin Street,,Johnstown,PA,15905,,Cambria,814-534-1099,,814-534-1095,,http://www.conemaugh.org/,40.305111,-78.918268,MH,2017-02-27 11:25:37,1,1,,,,,,,,1,1,1,1,,1,,,1,,1,,1,,,1,,,1,,,,,,,,1,1,1,1,1,1,1,,,,,,,,,,,,,1,,,,,,,,,,1,,,,,,,,,,,,,,,,,,,,,,,1,,,1,,,,,1,,,1,1,1,,,,,,,,,,,,,,,,,,,,,,,,,,,,
Family Counseling Servs of Cortland,Fam Counseling Servs MH Clinic,10 North Main Street,,Cortland,NY,13045,,Cortland,607-753-0234,,,,http://fcscortland.org/,42.601734,-76.1808836,MH,2017-02-27 11:25:37,1,,,,,,1,,,1,1,1,1,1,,1,1,,,1,,1,,,,,,1,,,,,,,,1,1,1,1,1,1,1,1,,,1,1,,,,,,1,1,,1,,,1,,,,,,,,1,,,,1,,,,1,,,,,1,,,1,,,1,,1,1,,1,1,,,,1,,1,1,1,1,,,1,,,,,,,,,,,,,,,,,,,,,,,,,
New Vitae Wellness and Recovery,,16 South Main Street,,Quakertown,PA,18951,,Lehigh,215-538-3403 x302,,215-538-3403,,http://newvitaewellness.com/,40.4419733,-75.3526627,MH,2017-08-15 16:34:00.938,1,,,,,,1,,,1,1,1,1,1,1,,1,,,1,,,1,,,,1,1,,,,,,,,1,1,1,,1,1,,,,,,,,,,,,,,,1,,,,,1,,,,1,,1,,1,,1,1,1,,,,,1,1,,1,1,1,,,,,,,1,1,1,,,,1,,,1,1,1,,,,,,,,,,,,,,,,,,,,,,,,,,,,
Spirit of Gheel Inc,Buttonwood Farm,14 Buttonwood Lane,,Birchrunville,PA,19421,,Chester,610-827-0860,Intakes,610-495-7871 x216,610-495-7871 x211,http://www.spiritofgheel.org,40.148798,-75.62622,MH,2017-02-27 11:25:37,1,,,1,,,,,,1,,1,1,,,,,1,,1,,,1,,,1,,,,,,,,,,1,,,,,,,,,,,,,,,1,,,,,,,,,,,,,,1,,,,1,,,,,,,,1,,,,1,,1,,1,,,,,1,,,1,,,,,,,1,1,,,1,,,,,,,,,,,,,,,,,,,,,,,,,
Cortland Regional Medical Center,,134 Homer Avenue,,Cortland,NY,13045,,Cortland,607-756-3770,,,,http://www.cortlandregional.org/,42.608842,-76.187635,MH,2017-02-27 11:25:37,1,1,,,,,,,,1,,1,1,1,,,,1,1,1,,1,,,1,,,,,,,,,,,1,1,1,1,1,1,,,,,,,,,,,1,,,1,1,,,1,,,,,,1,,,,1,,,,,,,,,,,,1,1,1,,,1,1,1,,,1,1,,,,1,,,1,1,1,,,1,,,,,,,,,,,,,,,,,,,,,,,,,
Spirit of Gheel Inc,Gheel House,10 Hollow Road,,Spring City,PA,19475,,Chester,610-495-7871,Intakes,610-495-7871 x216,610-495-7871 x211,http://www.spiritofgheel.org,40.148932,-75.619029,MH,2017-02-27 11:25:37,1,,,1,,,,,,1,,1,1,,,,,1,,1,,,1,,,1,,,,,,,,,,1,,,,,,,,,,,,,,,1,,,,,,,,,,,,,,1,,,,1,,,,,,,,1,,,,1,,1,,1,,,,,1,,,,,,,,,,1,1,,,1,,,,,,,,,,,,,,,,,,,,,,,,,
Saint Lukes Quakertown Hospital,,1021 Park Avenue,,Quakertown,PA,18951,,Bucks,215-538-4500 x4747,,,,http://www.slhn.org,40.4385,-75.348954,MH,2017-02-27 11:25:37,1,1,,,,,,,,1,,1,1,,,1,,1,,1,,1,,,1,,,,,,,,,,,1,1,1,1,1,1,1,,,,,,,,,1,1,,,1,,,,,,,,,,,,,,1,,,,,,,,1,,1,,1,,1,,1,,,1,1,,1,1,,,,1,,,1,1,1,,,,,,,,,,,,,,,,,,,,,,,,,,,,
Family Guidance Center of ,Warren Cnty/Outpatient Services,370 Memorial Parkway,,Phillipsburg,NJ,08865,1535,Warren,908-454-4470,,908-689-1000,,http://www.fgcwc.org,40.695359,-75.190653,MH,2017-02-27 11:25:37,1,,,,,,,1,,1,1,1,1,,1,1,1,,,1,,,1,,,,,1,,,,,,,,1,1,1,,1,1,1,1,1,,,1,1,1,,1,1,1,,1,1,,,1,,,,,,,,,,,,,,,,,,,,,,,,,,1,,,,,,,,,,,,,1,1,1,1,,,,,,,,,,,,,,,,,,,,,,,,,,,,
Family Guidance Center of,Warren Cnty/Primary Screening Ctr,370 Memorial Parkway,,Phillipsburg,NJ,08865,,Warren,908-454-5141,,,,http://www.familyguidancecenterofwc.org,40.6953744,-75.1905151,MH,2018-03-30 13:53:25.915,1,,,,,,,1,,1,1,,1,,,,1,,,1,1,,1,,,,,1,,,,,,,,1,1,1,1,1,,1,1,1,,,,,,,1,1,1,,1,,,,,,,,,,,,,,,,,,,,,,,,,,,,,,,,,,,,,1,,,,,,1,1,1,1,,,,,,,,,,,,,,,,,,,,,,,,,,,,
Indiana Regional Medical Center,Behavioral Health,835 Hospital Road,,Indiana,PA,15701,3629,Indiana,724-357-7404,,,,http://www.irmc.org,40.607547,-79.156572,MH,2017-02-27 11:25:37,1,1,,,,,,,,1,,1,,,,,,1,,1,,1,,,1,,,,,,,,,,,1,1,1,1,1,1,1,1,,,,,,,1,1,,,1,1,,,,,,,,,,1,,,,,1,,,,,,,1,,,,,,,,,,,1,1,,1,,,,,1,,,,,1,,,1,,,,,,,,,,,,,,,,,,,,,,,,,
Villa Maria of Carroll County BHS,,1129 Business Parkway South,Suite A,Westminster,MD,21157,,Carroll,667-600-2850,,,667-600-2863,http://cc-md.org,39.605428,-76.999897,MH,2017-02-27 11:25:37,1,,,,,,1,,,1,1,1,1,1,1,,1,1,,1,1,,1,,,,,1,,,,,,,,1,1,,1,,,1,1,,,,,,,,,,,,,,,,,,,,,,,,,,,,,,,,,,,,,,,,1,,,,,,,1,1,,,,,,,1,1,1,,,,1,,,,,,,,,,,,,,,,,,,,,,,,,
Brandywine Hospital,,201 Reeceville Road,,Coatesville,PA,19320,,Chester,610-383-8000,Intakes,610-383-4980,,http://,40.009796,-75.786146,MH,2017-02-27 11:25:37,1,1,,,,,,,,1,1,1,1,1,1,,,1,,1,1,1,,,1,,,1,,,,,,,,1,1,1,1,1,1,,1,,,1,1,,,1,,1,,,1,,,,,,,,,,1,,,,1,1,,,,1,,,,,1,,1,1,1,,1,1,,1,,1,1,1,,,,,,1,1,1,1,,,1,,,,,,,,,,,,,,,,,,,,,,,,,
Warren General Hospital,Deerfield Behavioral Health,2 Crescent Park West,,Warren,PA,16365,2111,Warren,814-723-3300 x1875,,,,http://www.wgh.org,41.843272,-79.154769,MH,2017-02-27 11:25:37,1,1,,,,,,,,,,1,1,,,,,1,,1,,1,,,1,,,,,,,,,,,,1,1,1,1,,,,,,,,,,,,,,,,,,,1,,,,,,,,,,1,,,,,,,,,,,,,,,,,,,,1,,1,1,,,,1,,1,1,1,1,,,1,,,,,,,,,,,,,,,,,,,,,,,,,
Behavioral Health LLP,QualityCare Internet (QCI),201 North Burhans Boulevard,,Hagerstown,MD,21740,,Washington,301-791-2660,,,,http://www.qcihealth.com,39.6481328,-77.724918,MH,2017-02-27 11:25:37,1,,,,,,1,,,1,1,1,1,,1,,1,,,1,1,1,,,,,,1,,,,,,,,1,1,1,1,1,1,1,,,,1,1,1,1,,,,,,,,,,1,,,,,,,,1,,1,,,,,,1,,1,,,1,,,,,,,,,1,1,1,1,,,,,,1,1,1,1,,,,,,,,,,,,,,,,,,,,,,,,,,,,
Coatesville VAMC,Mental Health (116A),1400 Blackhorse Hill Road,,Coatesville,PA,19320,,Chester,610-383-0238,,610-384-7711 x3641,,http://www.coatesville.va.gov,39.9981257,-75.7959514,MH,2018-03-07 17:17:22.076,1,,,,,,,,,1,1,1,1,1,1,,1,,,1,1,,1,,1,1,,1,,1,,,,,,,,,,1,1,,,,,,,,,1,1,1,,,,,,,,1,1,,,1,,,1,,,,1,1,,,,1,1,,1,,1,,1,1,1,1,,1,1,1,1,1,1,1,1,1,1,,1,1,1,,,,,1,,,,,,,,,,,,,,,,,,,,,,,
LCMHS,,1 Murray Hill Drive,,Mount Morris,NY,14510,,Livingston,585-243-7250,,,,http://,42.7294284,-77.8808811,MH,2017-02-27 11:25:37,1,,,,,,1,,,1,1,,1,1,1,,1,,,1,,1,,,,,,1,,,,,1,,,1,1,1,1,1,1,1,1,1,1,,1,1,1,,,1,,,1,,,,,,,,,,,,1,1,1,,1,,,,,1,1,,,1,,,,,,,,,,,1,,,,,1,,1,1,1,1,,,,,,,,,,,,,,,,,,,,,,,,,,,,
Child Guidance Resource Centers,,744 East Lincoln Highway,,Coatesville,PA,19320,,Chester,610-383-5635,,,,http://www.cgrc.org,39.9853221,-75.8093147,MH,2018-06-25 11:36:11.111,1,,,,,,1,,,1,1,1,1,,1,,1,,,1,,1,,,,,,1,,,,,,,,1,1,,1,1,1,,1,1,,,1,,,,,,,,1,1,,,,,,,,,,,1,1,,,1,,,,,,1,,,1,1,,1,,,1,,,,,,,,,,,,1,1,,,,,1,,,,,,,,,,,,,,,,,,,,,,,,,
Human Services Inc,,744 East Lincoln Highway,Suite 410,Coatesville,PA,19320,,Chester,610-380-9982 x168,,610-873-1010,,http://www.hsi-cmhs.com/,39.985184,-75.809201,MH,2017-02-27 11:25:37,1,,,,,,1,,,1,1,,1,1,1,,1,,,1,,,1,,,,,1,,,,,,,,1,1,1,1,1,1,1,1,1,,,1,,1,,,,1,1,,,,,,,,,,,,,,,,,,,,,,,,,1,1,1,,1,,,,,,,,,1,,,,1,,1,1,1,1,,,,,,,,,,,,,,,,,,,,,,,,,,,,
Warren State Hospital,,33 Main Drive,,Warren,PA,16365,,Warren,814-723-5500 x4257,Intakes,814-723-5500 x4415,814-726-4415,http://,41.87896,-79.145556,MH,2017-02-27 11:25:37,1,1,,,,,,,,1,,1,1,1,1,1,1,1,,1,,,1,,1,,,,,,1,,,,,1,1,1,,1,,,,,,,,,,,1,,,,,,,,1,,,,,,1,,1,,1,,,,,,,,1,1,1,,1,1,1,,,1,,1,,1,1,1,1,,,1,1,,1,1,1,,,,,,,,,,,,,,,,,,,,,,,,,,,,
Villa Maria OMHC,Hagerstown,322-324 East Antietam Street,Suite 307A,Hagerstown,MD,21740,,Washington,667-600-2140,,301-733-5858,,http://www.catholiccharites-md.org,39.6380175,-77.7136411,MH,2018-06-25 11:59:42.55,1,,,,,,1,,,1,1,1,1,,1,,1,1,,1,1,,1,,,,,1,,,,,,,,1,1,1,,,,,1,1,,,,,,,,,,,,,,,,,,,,,,,,,,,,,,,,,,,,,,,,,,,,1,1,1,1,,,,,1,,1,1,1,1,,,1,,,,,,,,,,,,,,,,,,,,,,,,,
Achievement Center,Warren Office,305 North State Street,,Warren,PA,16365,4867,Warren,814-726-4975,,,814-459-2755,http://www.achievementctr.org,41.8843424,-79.1437633,MH,2017-02-27 11:25:37,1,,,,,,1,,,1,1,1,1,,1,1,1,1,,,,1,,,,,,1,,,,,,,,,1,,1,1,1,1,1,,,1,1,,,,1,,,,,,,,,,,,,,,,,1,,,,,1,,,,1,,,,,,1,,,,,,,1,1,,,,,,,1,1,,,,,1,,,,,,,,,,,,,,,,,,,,,,,,,
Walnut Street Community Health Center,,201 South Cleveland Avenue,,Hagerstown,MD,21740,,Washington,301-745-3777,,,,http://www.familyhch.org,39.6360553,-77.711271,MH,2018-05-02 12:34:07.354,1,,,,,,1,,,1,1,,1,,,,,,,1,,1,,,,,,1,,,,,,,,1,1,1,,1,1,,,,,,,,,,1,,,,1,,,,,,,,,,,,,,1,,,,,,,,1,1,,,,,,,,1,,,,,1,,,,,1,,,1,1,1,,,1,1,,,,,,,,,,,,,,,,,,,,,,,,
Family Services of Warren Cnty Inc,,589 Hospital Drive,Suite E,Warren,PA,16365,,Warren,814-723-1330,,,,http://www.fswc.org,41.882055,-79.1475034,MH,2018-03-30 14:08:26.948,1,,,,,,1,,,1,1,1,1,1,1,1,1,,,,,,1,,,,,1,,,,,,,,1,1,1,1,1,1,1,1,1,,,1,,,,,,1,1,,,,,,,,,,,,,1,,,,1,,,,,,,,,1,,,1,,,,,,,,,,,,,,,1,1,1,1,,,1,,,,,,,,,,,,,,,,,,,,,,,,,
Beacon Light Behavioral Health Sys,Recovery Center,1885 Market Street,,Warren,PA,16365,,Warren,814-723-1832,,,,http://,41.8674317,-79.1563908,MH,2018-03-30 14:08:25.307,1,,,,,,1,,,1,1,1,1,1,1,,1,,,1,,,1,,,,,1,,,,,,,,1,1,1,1,1,1,1,1,1,1,1,1,1,1,,,,,,,,,,,,,,,,,,1,,,,1,,,,,,1,,1,1,,,,,,,,,,1,,,,,,,,1,1,1,1,,,1,,,,,,,,,,,,,,,,,,,,,,,,,
Family Psychological Associates,,625 Rustic Lodge Road,Suite C,Indiana,PA,15701,,Indiana,724-349-6320 x214,Intakes,724-349-6320,724-349-6325,http://www.kcifpa.com,40.6000605,-79.1747704,MH,2018-01-23 13:54:19.635,1,,,,,,1,,,1,1,,1,1,1,,1,,,1,,,1,,,,,1,,,,,,,,1,1,1,1,1,1,1,1,,,1,1,,,,,,,,,,,,,,,,,,,,,,,,,,,,,1,1,,1,1,,,,,,,,,,,,,,,,,,1,1,1,1,,,,,,,,,,,,,,,,,,,,,,,,,,,,
Meritus Behavioral Health Servs for,Meritus Medical Center,11116 Medical Campus Road,,Hagerstown,MD,21742,,Washington,301-766-7606,,301-766-7600,,http://,39.6226768,-77.6851973,MH,2018-05-29 16:26:28.664,1,1,,,,,,,,1,1,1,1,,1,,,,,1,,1,,,1,,1,1,,,,,,,,1,1,1,1,1,1,,,,,,,,,,1,1,,,1,,,,1,,,,,,,,,,,,,,,,,,1,,,,,,,,,,,,,,,1,,,,,,,1,1,1,,,1,,,,,,,,,,,,,,,,,,,,,,,,,
Erie VAMC,Warren CBOC,3 Farm Colony Drive,,Warren,PA,16365,5209,Warren,814-723-9763,,814-860-2038,,http://www.erie.va.gov/,41.905309,-79.151612,MH,2018-03-07 17:17:18.769,1,,,,,,,,,1,1,1,1,,,,1,,,1,1,,1,,,,,1,,1,,,,,,,,,,,,,,,,,,,,1,,,,,,,,,,,1,,,,,,,,,,1,,,,,,,,1,1,,,1,1,,1,,1,1,,1,1,,,,,,,1,1,1,,,,,1,,,,,,,,,,,,,,,,,,,,,,,
Spirit of Gheel,,P.O. Box 610,,Kimberton,PA,19442,,Chester,610-495-7871,Intakes,610-495-7871 x216,610-495-7871 x211,http://www.spiritofgheel.org,40.133627,-75.577885,MH,2017-02-27 11:25:37,1,,,1,,,,,,1,,1,1,,1,,,1,,1,,,1,,,1,,,,,,,,,,1,,,,,,,,,,,,,,,1,,,,,,,,,,,,,,1,,,,1,,,,,,,,1,1,,,,,1,,1,,,,,,,,,,,,,,,1,1,,,1,,,,,,,,,,,,,,,,,,,,,,,,,
Cedar Ridge Ministries,Childrens Home,12146 Cedar Ridge Road,,Williamsport,MD,21795,,Washington,301-582-0282 x122,,301-582-0282 x123,,http://cedarridgeministries.org,39.6482628,-77.856098,MH,2018-03-06 16:10:19.455,1,,,,1,,,,,1,,1,1,1,1,1,1,1,,1,,1,,,,1,,,,,,,,,,1,,1,,1,1,1,1,1,1,,,,,,1,,,,,,,,,,,,,,,,,1,,,,,1,,,1,1,,,1,1,1,,,,1,,,,1,,1,,,,,,1,1,,,,,,,,,,,,,,,,,,,,,,,,,,,,,,
Mosaic Community Services,Supported Employment Program,288 East Greene Street,,Westminster,MD,21157,,Carroll,410-453-9553,,410-876-3007 x1673,,http://www.mosaicinc.org,39.5657395678202,-76.9889649960215,MH,2018-05-14 11:44:41.687,1,,,,,,,1,,,,,,,1,,,,,,,1,,,,,,1,,,,,,,,1,1,1,,,,1,,,,,1,1,1,,,,,1,,,,,1,,,,,,,,,,1,,,1,1,,,,,,,,,,,,,,,,,,,,1,,,,1,1,1,1,1,,,,,,,,,,,,,,,,,,,,,,,,,,,,
Penn Foundation Inc,,807 Lawn Avenue,,Sellersville,PA,18960,,Bucks,215-257-6551,,267-404-5847,,http://www.pennfoundation.org,40.3643813,-75.3255415,MH,2018-01-26 09:53:55.477,1,,,,,,,,1,1,1,1,1,1,1,1,1,,,1,,,1,,,1,,1,,,,,,,,1,1,1,1,1,,1,,,,1,1,,,,1,,,,1,1,,,1,1,,,,1,1,,1,,1,,1,,,,1,1,1,,1,1,1,,1,1,,1,,,,1,1,,1,1,,1,,1,1,1,1,,,1,,,,,,,,,,,,,,,,,,,,,,,,,
Human Services Inc,,520 East Lancaster Avenue,,Downingtown,PA,19335,,Chester,610-873-1005 x126,,610-873-1010,,http://www.hsi-cmhs.com,40.011961,-75.693853,MH,2017-02-27 11:25:37,1,,,,,,,,1,1,,1,1,1,,,,,,1,1,,1,,,,1,1,,,,,,,,1,1,1,1,1,1,1,1,1,1,1,1,1,1,,,,,1,1,1,,,,,,,,1,,,,1,1,,,,,,,1,1,,1,1,,,1,,,,,,,1,,,,,,1,1,1,1,1,1,,,1,,,,,,,,,,,,,,,,,,,,,,,,,
Carroll Hospital,Behavioral Health,200 Memorial Avenue,,Westminster,MD,21157,,Carroll,410-871-7110,,,,http://www.carrollhospitalcenter.org/behavioral-health,39.5579723,-76.9906982,MH,2017-02-27 11:25:37,1,1,,,,,,,,,,1,,,,,,,,,,1,,,1,,1,,,,,,,,,1,1,1,,1,1,,,,,,,,,,,1,,,1,,,,1,,,,,,1,,,,1,,,,1,,,,,,,,,,,,,,,,,,,,,,,,,1,1,1,1,,,1,,,,,,,,,,,,,,,,,,,,,,,,,
Livingston County Community Servs,Mental Health,4600 Millennium Drive,,Geneseo,NY,14454,,Livingston,585-243-7250,,,,http://,42.7981837,-77.7904057,MH,2018-07-10 13:05:32.631,1,,,,,,1,,,1,1,1,1,1,,,1,,,1,,1,,,,,,1,,,,,1,,,1,1,1,1,1,,1,1,,,1,1,,,,,,1,,1,,,,,,,,,,,,1,1,1,,1,,,,,,1,,,,,,,,,,,,,,1,1,,,,1,,1,1,1,1,,,,,,,,,,,,,,,,,,,,,,,,,,,,
Family Psychological Associates,Clarion,342 South 5th Avenue,,Clarion,PA,16214,,Clarion,814-226-4912,,,,http://www.kcifpa.com/,41.207369,-79.390936,MH,2017-02-27 11:25:37,1,,,,,,1,,,1,1,1,1,1,1,1,1,1,,1,,,1,,,,,1,,,,,,,,1,1,1,1,1,,1,1,1,1,1,1,1,1,,,,,,,,,,,,,,,1,,,1,,,,1,,,,,1,1,1,,1,1,,,,,1,,,,,1,1,,,,1,,1,1,1,1,,,,,,,,,,,,,,,,,,,,,,,,,,,,
Devereux Foundation,Community Services of Devereux,1041 West Bridge Street,,Phoenixville,PA,19460,,Chester,610-933-8110,,,,http://www.devereux.org,40.1258332,-75.5343112,MH,2017-02-27 11:25:37,1,,,,,,1,,,1,1,,1,1,,,1,,,1,,,1,,,,,1,,,,,,,,1,1,,,1,,,,,,,1,,,,,,,,1,1,,,,,,,,,,,,,,,,,,,,1,1,,,,,,,,,,,,,,,1,,,,,,1,1,,,,,1,,,,,,,,,,,,,,,,,,,,,,,,,
Human Services Inc,,410 Boot Road,,Downingtown,PA,19335,,Chester,610-873-1010 x207,,610-873-1010,,http://www.hsi-cmhs.com,40.0014851,-75.689403,MH,2017-02-27 11:25:37,1,,,,,,1,,,1,1,1,1,1,1,,1,1,,1,1,,1,,,,1,1,,,,,,,,1,1,1,1,1,1,1,1,,,,1,1,,,,1,1,1,1,1,,,,,,,,1,1,,1,1,1,,1,,1,,,1,1,,1,1,1,,1,,1,,,,,,,,,,,1,,1,1,1,1,,,1,,,,,,,,,,,,,,,,,,,,,,,,,
Chester County Intermediate Unit,,455 Boot Road,,Downingtown,PA,19335,,Chester,484-237-5192,,866-251-3001,,http://www.cciu.org/,40.005053,-75.67942,MH,2017-02-27 11:25:37,1,,,,,,1,,,,,,,,1,,,,,,,,1,,,,1,,,,,1,,,,,1,,,1,,,1,,1,,1,,,,,,,,,,,,,,,,,,,,,1,,,,,,,,,,,,,,,,,,,,,,1,,,,,,,,1,1,,,,,,,,,,,,,,,,,,,,,,,,,,,,,,
Clarion Psychiatric Center,,2 Hospital Drive,,Clarion,PA,16214,,Clarion,814-226-2419,,800-253-4906,,http://www.clarioncenter.com/,41.191952,-79.398092,MH,2017-02-27 11:25:37,1,1,,,,,,,,1,1,1,1,1,,,1,1,,1,,,1,,1,,1,,,,,,,,,1,1,1,1,1,1,1,1,,1,1,1,,,1,,1,,,1,,,,,,,,,,,,,1,1,,,,,,,,,,,,1,1,1,,,,,1,1,,1,1,,,,1,,1,1,1,1,1,1,,,,,,,,,,,,,,,,,,,,,,,,,,
